urn,name,country,telephone,email,website,head_title,head_first_name,head_last_name,street,locality,town,county,postcode,latitude,longitude
134909,3 Dimensions,England,,,,,,,Chardleigh House,Chardleigh Green,Chard,NULL,TA20 3AJ,50.8885014,-2.9748965
123775,Abbas and Templecombe Church of England Primary School,England,,,,,,,School Lane,NULL,Templecombe,NULL,BA8 0HP,51.0027754,-2.4158465
136083,Abbey College Cambridge,England,,,,,,,Homerton Gardens,Purbeck Road,Cambridgeshire,NULL,CB2 8EB,52.1868733,0.1329346
117035,Abbey College in Malvern,England,,,,,,,253 Wells Road,NULL,Malvern,NULL,WR14 4JF,52.0723291,-2.33318
105601,Abbey College Manchester,England,,,,,,,5-7 Cheapside,Off King Street,NULL,NULL,M2 4WG,53.481354,-2.244026
111484,Abbey Gate College,England,,,,,,,Saighton Grange,Saighton,Chester,NULL,CH3 6EN,53.1505556,-2.8341667
136006,Abbey Hill Primary & Nursery,England,,,,,,,Abbey Road,Kirkby-in-Ashfield,Nottingham,NULL,NG17 7NZ,53.1007966,-1.2353128
124500,Abbey Hill School and College,England,,,,,,,Box Lane,Meir,Stoke-On-Trent,NULL,ST3 5PP,52.981941,-2.1081884
106982,Abbey Lane Primary School,England,,,,,,,Abbey Lane,NULL,Sheffield,NULL,S8 0BN,53.3387469,-1.4851121
113566,Abbey School,England,,,,,,,Hampton Court,Fore Street,Torquay,NULL,TQ1 4PR,50.4821565,-3.5220468
147951,Abbey School for Exceptional Children,England,,,,,,,10-12 Abbey Square,Chester,NULL,NULL,CH1 2HU,53.1927364,-2.8919206
146571,Abbeywood School,England,,,,,,,Rother Way,Hellaby Industrial Estate,Rotherham,NULL,S66 8QN,53.427764,-1.2455584
106386,Abbotsford Preparatory School,England,,,,,,,211 Flixton Road,Urmston,M41 5PR,NULL,M41 5PR,53.4486503,-2.3720081
117600,Abbot's Hill School,England,,,,,,,Bunkers Lane,NULL,Hemel Hempstead,NULL,HP3 8RP,51.7294644,-0.4436194
113003,Abbotsholme School,England,,,,,,,Rocester,NULL,Uttoxeter,NULL,ST14 5BS,52.9442296,-1.8253084
148006,Abbot's Way School,England,,,,,,,St Mary's Road,Meare,NULL,NULL,BA6 9SR,51.1715733,-2.7852419
101177,Abercorn School,England,,,,,,,28 Abercorn Place,NULL,London,NULL,NW8 9XP,51.5327498,-0.1797417
125317,Aberdour Preparatory School,England,,,,,,,Brighton Road,Burgh Heath,NULL,NULL,KT20 6AJ,51.3105768,-0.214448
107985,Aberford Church of England Voluntary Controlled Primary School,England,,,,,,,School Lane,Aberford,Leeds,NULL,LS25 3BU,53.828143,-1.3443702
148419,Abigail's Place,England,,,,,,,St. Ann's School,Spetchley,NULL,NULL,WR5 1RS,52.1786318,-2.1485782
130793,Abingdon and Witney College,England,,,,,,,Wootton Road,NULL,Abingdon,NULL,OX14 1GG,51.6811039,-1.2881332
134911,Abingdon House School,England,,,,,,,Broadley Terrace,NULL,London,NULL,NW1 6LG,51.5244293,-0.1662529
149578,Abingdon House School Purley,England,,,,,,,Godstone Road,NULL,Purley,NULL,CR8 2AN,51.3304083,-0.1082669
131519,Abingdon Primary School,England,,,,,,,Abingdon Road,NULL,Middlesbrough,NULL,TS1 3JR,54.5713583,-1.2280092
123312,Abingdon School,England,,,,,,,Park Road,NULL,Abingdon,NULL,OX14 1DE,51.6718337,-1.2865902
135822,Abrar Academy,England,,,,,,,34-36 Garstang Road,NULL,Preston,NULL,PR1 1NA,53.7702431,-2.7045732
132750,Abu Bakr Al-Ihsaan Academy,England,,,,,,,154- 160 Wednesbury Road,Palfrey,Walsall,NULL,WS1 4JJ,52.5755311,-1.9910842
135483,Abu Bakr Boys School,England,,,,,,,154-156 Wednesbury Road,NULL,Walsall,NULL,WS1 4JJ,52.575697,-1.9910827
132772,Access School,England,,,,,,,Holbrook Villa Farm,Harmer Hill,Shrewsbury,NULL,SY4 3EW,52.8176506,-2.7422685
119441,Accrington Benjamin Hargreaves Voluntary Aided Church of England Primary School,England,,,,,,,Barnfield Street,NULL,Accrington,NULL,BB5 2AQ,53.7523511,-2.3558873
111586,Acklam Whin Primary School,England,,,,,,,Carlbury Avenue,Acklam,Middlesbrough,NULL,TS5 8SQ,54.5359107,-1.2593954
108300,Ackworth School,England,,,,,,,Pontefract Road,Ackworth,West Yorkshire,NULL,WF7 7LT,53.6501729,-1.3336082
130854,Acorn Cottage The Lodge,England,,,,,,,Ipswich Road,Elmsett,Ipswich,NULL,IP7 6NY,52.0776212,1.0043188
135066,Acorn Park School,England,,,,,,,Andrews Furlong,Mill Road,Norwich,NULL,NR16 2HU,52.457436,1.0477634
135773,Acorn School,England,,,,,,,Seckington Cross,Winkleigh,Winkleigh,NULL,EX19 8EY,50.86428,-3.9516132
131551,Acorns School,England,,,,,,,19b Hibbert Lane,Marple,Stockport,NULL,SK6 7NN,53.392204,-2.0665658
148192,Acorn Wood,England,,,,,,,Watery Lane,Coton,Shropshire,NULL,SY13 3LR,52.9104922,-2.7009037
150079,Acre View Primary School,England,,,,,,,286 Southport Road,Lydiate,Liverpool,NULL,L31 4EQ,53.5348977,-2.9579835
125421,ACS Cobham International School,England,,,,,,,Heywood,Portsmouth Road,Cobham,NULL,KT11 1BL,51.3481216,-0.4017895
131173,ACS Egham International School,England,,,,,,,Woodlee,London Road,Egham,NULL,TW20 0HS,51.4157085,-0.5777941
102458,ACS Hillingdon International School,England,,,,,,,108 Vine Lane,Hillingdon,Uxbridge,NULL,UB10 0BE,51.5440701,-0.4619714
145462,Act Fast NL Ltd,England,,,,,,,Kieradan Park,North Moor Lane,Scunthorpe,NULL,DN17 3PS,53.5390031,-0.6731231
134153,Activate Learning,England,,,,,,,Oxpens Road,NULL,Oxford,NULL,OX1 1SA,51.7494805,-1.2655107
142672,Active Support Education Centre,England,,,,,,,Unit 1 Britannia Estates,Leagrave Road,Beds,NULL,LU3 1RJ,51.8901354,-0.4326568
148037,Active Wellbeing School,England,,,,,,,Phoenix House,Scotia Road,Stoke-on-Trent,NULL,ST6 6FF,53.0594615,-2.2096267
143540,Ada National College for Digital Skills,England,,,,,,,"1, Sutherland Street",Pimlico,London,NULL,SW1V 4LD,51.4893175,-0.1471364
123602,Adcote School for Girls,England,,,,,,,Little Ness,NULL,Shrewsbury,NULL,SY4 2JY,52.762332,-2.8658012
110187,Addington School,England,,,,,,,Woodlands Avenue,Woodley,Reading,NULL,RG5 3EU,51.4529326,-0.9179239
149157,ADO River Valley School,England,,,,,,,Poets Corner Centre,19a Keats Road,Welling,NULL,DA16 3NB,51.4717936,0.0932941
143640,Advance Education,England,,,,,,,Unit 5 Unimix House,Abbey Road,London,NULL,NW10 7TR,51.5332415,-0.2752457
151622,Adventure Wellbeing School,England,,,,,,,Sherwood House,Gadbrook Road,Northwich,NULL,CW9 7TN,53.2471825,-2.4822055
106670,Adwick Primary School,England,,,,,,,Stafford Road,Woodlands,Doncaster,NULL,DN6 7LW,53.5640042,-1.1841918
134469,Afifah School,England,,,,,,,86 Clifton Street,Old Trafford,Manchester,NULL,M16 9GN,53.4621018,-2.2626191
132412,AFNORTH International School,England,,,,,,,British Section,Hq AFNORTH,Brunssum,NULL,NULL,55.378051,-3.435973
150941,Agricultural and Rural Centre,England,,,,,,,5 Quarry Road,Romiley,Stockport,NULL,SK6 4BA,53.4143734,-2.0964138
140036,Ahavas Torah Boys Academy,England,,,,,,,Salbec House,16 Winders Way,Manchester,NULL,M6 6AR,53.4923032,-2.2759
125814,Aidenswood School,England,,,,,,,48 Parson Street,NULL,Congleton,NULL,CW12 4ED,53.1623186,-2.2226988
135633,Aim Habonim,England,,,,,,,51 Rigby Street,NULL,Salford,NULL,M7 4NX,53.5059661,-2.2598777
104903,Ainsdale St John's Church of England Primary School,England,,,,,,,Sandbrook Road,Ainsdale,Southport,NULL,PR8 3JE,53.5988158,-3.0333604
142109,Akaal Primary School,England,,,,,,,Grange Avenue,NULL,Derby,NULL,DE23 8DG,52.8958485,-1.4890749
122138,Akeley Wood Junior School,England,,,,,,,Wicken Park Road,Wicken,Northamptonshire,NULL,MK19 6DA,52.0376319,-0.9161545
110536,Akeley Wood Senior School,England,,,,,,,Akeley Wood Senior School,Bycell Road,NULL,NULL,MK18 5AE,52.0314299,-0.9948895
132415,Akrotiri Primary School,England,,,,,,,RAF Akrotiri,NULL,Akrotiri,NULL,NULL,NULL,NULL
119836,AKS Lytham,England,,,,,,,Clifton Drive South,NULL,Lytham St Annes,NULL,FY8 1DT,53.7406556,-3.008816
130244,Al-Ameen Primary School,England,,,,,,,Stanfield House,447 Warwick Road,Birmingham,NULL,B11 2JR,52.452858,-1.851113
144805,Alamiyah School,England,,,,,,,113-115 Marlborough Road,Dagenham,NULL,NULL,RM8 2ES,51.5494938,0.1203637
134809,Al-Aqsa Schools Trust,England,,,,,,,The Wayne Way,Leicester,Leicester,NULL,LE5 4PP,52.635934,-1.0916912
135097,Al Ashraf Primary School,England,,,,,,,Al Ashraf Cultural Centre,Stratton Road,Gloucestershire,NULL,GL1 4HB,51.858679,-2.2348527
115810,Al-Ashraf Secondary School for Girls,England,,,,,,,Sinope Street,NULL,Gloucester,NULL,GL1 4AW,51.8616377,-2.2358069
146736,Alchemy School,England,,,,,,,72 Station Road,Teynham,NULL,NULL,ME9 9SN,51.3294147,0.8043553
117602,Aldenham School,England,,,,,,,Elstree,NULL,Elstree,NULL,WD6 3AJ,51.6634501,-0.3280119
126445,Alderbury and West Grimstead Church of England Primary School,England,,,,,,,Firs Road,Alderbury,Salisbury,NULL,SP5 3BD,51.0411704,-1.7269232
111478,Alderley Edge School for Girls,England,,,,,,,Wilmslow Road,NULL,Alderley Edge,NULL,SK9 7QE,53.3052937,-2.237973
113021,Alderwasley Hall School,England,,,,,,,Higg Lane,Alderwasley,Derbyshire,NULL,DE56 2SR,53.076524,-1.514041
125368,Aldro,England,,,,,,,Lombard Street,Shackleford,NULL,NULL,GU8 6AS,51.2007547,-0.6647253
117608,Aldwickbury School,England,,,,,,,Aldwickbury School,Wheathampstead Road,NULL,NULL,AL5 1AD,51.8114739,-0.3310382
116427,Aldworth School,England,,,,,,,Western Way,NULL,Basingstoke,NULL,RG22 6HA,51.2539498,-1.1138215
105626,Alexandra Park Junior School,England,,,,,,,Brook Lane,NULL,Oldham,NULL,OL8 2BE,53.5325165,-2.0996947
133449,Al-Falah Primary School,England,,,,,,,48 Kenninghall Road,Lower Clapton,London,NULL,E5 8BY,51.558197,-0.058845
131131,Al-Furqaan Preparatory School,England,,,,,,,Drill Hall House,Bath Street,Dewsbury,NULL,WF13 2JR,53.6951716,-1.6359795
147690,Al Hikmah Boys School,England,,,,,,,145 High Street,Luton,NULL,NULL,LU4 9LE,51.9002609,-0.4692902
139017,Al-Huda Primary School,England,,,,,,,3 Hennon Street,NULL,Bolton,NULL,BL1 3EH,53.5899143,-2.4459812
136098,Al-Ikhlaas Primary School,England,,,,,,,35 Norfolk Street,NULL,Nelson,NULL,BB9 7SY,53.837319,-2.2209723
119856,Al Islah Girls' High School,England,,,,,,,108 Audley Range,NULL,BLACKBURN,NULL,BB1 1TF,53.7442164,-2.4682383
135390,Al-Islamia Institute for Education,England,,,,,,,5-7 Evington Street,NULL,Leicester,NULL,LE2 0SA,52.6305319,-1.1173236
130285,Al Jamiah Al Islamiyyah,England,,,,,,,Willows Lane,NULL,Bolton,NULL,BL3 4HE,53.5669721,-2.4579185
132553,Al Kafilah Damascus Shell School,England,,,,,,,C/O Fieldwork Education Limited,30 Skylines Village,London,NULL,E14 9TS,51.4995065,-0.0118716
130274,Al Kauthar Girls Academy,England,,,,,,,Newton Hill House,Newton Hill Road,Leeds,NULL,LS7 4JE,53.8237671,-1.5313494
117725,Alkborough Primary School,England,,,,,,,Whitton Road,Alkborough,Scunthorpe,NULL,DN15 9JG,53.6868387,-0.6621083
141001,Al Khair Primary School,England,,,,,,,61/63 Oak Way Green,Off Causeway Green Road,West Midlands,NULL,B68 8LR,52.4878742,-2.0114456
134585,Al-Khair School,England,,,,,,,109-117 Cherry Orchard Road,NULL,Croydon,NULL,CR0 6BE,51.3791844,-0.0889361
147184,Al-Khair School Preparatory School,England,,,,,,,36 Pitlake,Croydon,NULL,NULL,CR0 3RA,51.3769382,-0.1071114
147027,Al-Khair Secondary Girls,England,,,,,,,109-117 Cherry Orchard,NULL,NULL,NULL,CR0 6BE,51.3791844,-0.0889361
150452,Allerthorpe School,England,,,,,,,Innov8 Business Park,Carr Lane,Pocklington,NULL,YO42 1NT,53.9110396,-0.7726743
115403,Alleyn Court Preparatory School,England,,,,,,,Wakering Road,Great Wakering,Southend-on-Sea,NULL,SS3 0PW,51.550474,0.759849
100864,Alleyn's School,England,,,,,,,Townley Road,Dulwich,London,NULL,SE22 8SU,51.4548782,-0.0815938
125315,All Hallows Catholic School,England,,,,,,,Weybourne Road,NULL,Farnham,NULL,GU9 9HF,51.2346105,-0.7744727
123909,All Hallows School,England,,,,,,,Cranmore Hall,East Cranmore,Shepton Mallet,NULL,BA4 4SF,51.1920871,-2.4569245
123228,All Saints Church of England (Aided) Primary School,England,,,,,,,Tamar Way,NULL,Didcot,NULL,OX11 7QH,51.6101827,-1.2310107
121145,All Saints Church of England CEVA Primary School Part of Flourish Federation,England,,,,,,,Fulmodeston Road,Stibbard,Fakenham,NULL,NR21 0LT,52.8170438,0.9401078
113772,All Saints Church of England Voluntary Controlled Primary School,England,,,,,,,Giles Lane,Bishops Caundle,Sherborne,NULL,DT9 5NQ,50.9143476,-2.4356572
124302,All Saints CofE (VC) Primary School,England,,,,,,,Bourne Avenue,Ranton,Stafford,NULL,ST18 9JU,52.8167827,-2.2212654
151336,All's Well,England,,,,,,,18 High Street,NULL,Fareham,NULL,PO16 7AF,50.8537262,-1.1739472
136955,Al-Madani Girls School,England,,,,,,,339 - 341 Bath Road,NULL,Slough,NULL,SL1 5PR,51.520358,-0.6385511
145416,Al-Madani Independent Grammar School,England,,,,,,,1 Whittle Parkway,Slough,NULL,NULL,SL1 6FE,51.5217194,-0.6502854
136746,Al Madina School for Girls,England,,,,,,,Victoria Road,2 (Annex Building),Barking,NULL,IG11 8PY,51.5441455,0.0773963
131122,Al-Mahad Al-Islami,England,,,,,,,1 Industry Road,Darnall,South Yorkshire,NULL,S9 5FP,53.3897254,-1.4162475
133646,Al-Mizan School,England,,,,,,,46 Whitechapel Road,NULL,London,NULL,E1 1JX,51.5174315,-0.0660495
134429,Al Mumin Primary and Secondary School,England,,,,,,,Clifton Street,Manningham,Bradford,NULL,BD8 7DA,53.8061949,-1.7608613
149601,Alpha Learning Staffordshire,England,,,,,,,Hobson Street,Burslem,Stoke-on-Trent,NULL,ST6 2AW,53.0445061,-2.1898649
102250,Alpha Preparatory School,England,,,,,,,21 Hindes Road,NULL,Harrow,NULL,HA1 1SH,51.5851568,-0.3349821
139559,ALP Leicester,England,,,,,,,Stonehill Avenue,Birstall,Leicester,NULL,LE4 4JG,52.6858138,-1.1209138
148051,ALP Nuneaton,England,,,,,,,Holman Way,Nuneaton,NULL,NULL,CV11 4PN,52.5171826,-1.4585965
149202,ALP Sittingbourne,England,,,,,,,60,Bell,Sittingbourne,NULL,ME10 4HE,51.3320731,0.7329482
146729,Al Risalah Boys' School,England,,,,,,,145 Upper Tooting Road,NULL,London,NULL,SW17 7TJ,51.4323574,-0.1634354
101090,Al Risalah Secondary School,England,,,,,,,145 Upper Tooting Road,NULL,London,NULL,SW17 7TJ,51.4321326,-0.1633136
101576,Al-Sadiq School,England,,,,,,,126 Chevening Road,NULL,London,NULL,NW6 6TP,51.5396544,-0.2093704
119635,"Alston Lane Catholic Primary School, Longridge",England,,,,,,,Preston Road,Alston,Preston,NULL,PR3 3BJ,53.808654,-2.6121066
143036,Alternative Centre of Education,England,,,,,,,45/51 Market Square,Edmonton Green,London,NULL,N9 0TZ,51.6246537,-0.0579216
116537,Alton School,England,,,,,,,Anstey Lane,NULL,Alton,NULL,GU34 2NG,51.1601416,-0.9672426
106379,Altrincham Preparatory School,England,,,,,,,Marlborough Road,Bowdon,Altrincham,NULL,WA14 2RR,53.3756492,-2.3529796
147025,Al-Zahra School,England,,,,,,,134 Salusbury Road,NULL,NULL,NULL,NW6 6PF,51.5398943,-0.2092753
141253,Ambergate Sports College,England,,,,,,,Dysart Road,NULL,Grantham,NULL,NG31 7LP,52.9095703,-0.6660553
138875,Amberleigh Therapeutic School,England,,,,,,,The Oaks,Redhill,Telford,NULL,TF2 9NZ,52.695029,-2.407418
125346,Amesbury School,England,,,,,,,Hazel Grove,Hindhead,NULL,NULL,GU26 6BL,51.1006189,-0.7435842
116268,Ampfield Church of England Primary School,England,,,,,,,Knapp Lane,Ampfield,Romsey,NULL,SO51 9BT,51.0109284,-1.4230434
121735,Ampleforth College,England,,,,,,,Ampleforth,NULL,York,NULL,YO62 4ER,54.2021362,-1.082265
139657,Anderida Learning Centre,England,,,,,,,Neville Mews,NULL,Eastbourne,NULL,BN22 8HR,50.7755343,0.2918274
117302,Andrews Lane Primary School,England,,,,,,,Andrews Lane,Cheshunt,Waltham Cross,NULL,EN7 6LB,51.710009,-0.0532843
136162,Annan School,England,,,,,,,Annan Farm,Lewes Road,Uckfield,NULL,TN22 5RE,50.9385047,0.1447949
101375,Annemount School,England,,,,,,,18 Holne Chase,Hampstead Garden Suburb,London,NULL,N2 0QN,51.5797422,-0.1758805
107086,Anns Grove Primary School,England,,,,,,,Anns Road,NULL,Sheffield,NULL,S2 3DJ,53.3609934,-1.4684018
106896,Anston Park Junior School,England,,,,,,,Park Avenue,North Anston,Sheffield,NULL,S25 2QZ,53.361335,-1.2123103
126620,Apex Primary School,England,,,,,,,60-62 Argyle Road,NULL,Ilford,NULL,IG1 3BG,51.5631424,0.0651831
151475,Apex Secondary School for Boys,England,,,,,,,287 Cranbrook Road,NULL,Ilford,NULL,IG1 4UA,51.5657139,0.0659411
151474,Apex Secondary School for Girls,England,,,,,,,287 Cranbrook Road,NULL,Ilford,NULL,IG1 4UA,51.5657139,0.0659411
123450,Apley Wood Primary School,England,,,,,,,Pool Farm Avenue,Apley,Telford,NULL,TF1 6FQ,52.7131014,-2.5014346
126535,Appleford School,England,,,,,,,Elston Lane,Shrewton,Salisbury,NULL,SP3 4HL,51.2030843,-1.9045419
132069,Apple Orchard School,England,,,,,,,Apple Orchard School,Five Oaks Road,Horsham,NULL,RH13 0RQ,51.0492011,-0.4218458
130367,Appletree School,England,,,,,,,Natland,NULL,Kendal,NULL,LA9 7QS,54.2928163,-2.7430597
145949,APTCOO - A Place to Call Our Own,England,,,,,,,North Farm House,Worksop Road,Newark,NULL,NG22 9EX,53.225561,-1.076209
123444,Aqueduct Primary School,England,,,,,,,Castlefields Way,Aqueduct,Telford,NULL,TF4 3RP,52.6494342,-2.4586014
130514,Aquinas College,England,,,,,,,Nangreave Road,NULL,Stockport,NULL,SK2 6TH,53.3963682,-2.1479562
143642,Arbour House School,England,,,,,,,15-17 Glendinning Avenue,Weymouth,NULL,NULL,DT4 7QF,50.6205954,-2.4562318
147732,Arco Academy,England,,,,,,,Camberwell Leisure Centre,Artichoke Place,London,NULL,SE5 8TS,51.4743799,-0.0903868
145859,Arc Oakbridge School,England,,,,,,,Buckingham Street,Birmingham,NULL,NULL,B19 3HU,52.4897727,-1.9045797
141008,Arc School Ansley,England,,,,,,,Ansley Lane,NULL,Nuneaton,NULL,CV10 9ND,52.5217764,-1.5737944
141007,Arc School Napton,England,,,,,,,Vicarage Road,Napton-On-The-Hill,Warwickshire,NULL,CV47 8NA,52.249484,-1.317811
125790,Arc School Old Arley,England,,,,,,,Ansley Lane,Old Arley,Nuneaton,NULL,CV7 8NU,52.5138188,-1.5797197
126133,Ardingly College,England,,,,,,,College Road,Haywards Heath,Haywards Heath,NULL,RH17 6SQ,51.0382418,-0.0897732
108873,Argyle House School,England,,,,,,,19-20 Thornhill Park,NULL,Sunderland,NULL,SR2 7LA,54.8984501,-1.390837
146626,Argyll House,England,,,,,,,201 Holt Road,Cromer,Queensway,NULL,NR27 9JN,52.9217865,1.2777793
149481,Arise Academy,England,,,,,,,"Cornerstones, 14 Willis Road",NULL,Croydon,NULL,CR0 2XX,51.3849081,-0.0995018
139913,Arley Primary School,England,,,,,,,Gun Hill,New Arley,Coventry,NULL,CV7 8HB,52.5040661,-1.5681807
149399,Armley Grange School,England,,,,,,,Armley Grange Drive,Armley,Leeds,NULL,LS12 3QH,53.8019073,-1.6083459
135187,Arnfield Independent School,England,,,,,,,Arnfield Independent School,Po Box 446,Glossop,NULL,SK14 9EY,53.4433284,-1.948907
101156,Arnold House School,England,,,,,,,1-3 Loudoun Rd,St John's Wood,London,NULL,NW8 0LH,51.5338713,-0.1768579
125774,Arnold Lodge School,England,,,,,,,15-17 Kenilworth Road,NULL,Leamington Spa,NULL,CV32 5TW,52.2972222,-1.5360056
122720,Arnold Mill Primary and Nursery School,England,,,,,,,Cross Street,Arnold,Nottingham,NULL,NG5 7AX,53.0055818,-1.134217
122509,Arno Vale Junior School,England,,,,,,,Saville Road,Woodthorpe,Nottingham,NULL,NG5 4JF,52.9938543,-1.1278785
102551,ArtsEd Day School & Sixth Form,England,,,,,,,Cone Ripman House,14 Bath Road,London,NULL,W4 1LY,51.4960426,-0.2525082
148840,A.R.T.S. Education,England,,,,,,,167a Ormskirk Road,Rainford,Merseyside,NULL,WA11 8HR,53.5068134,-2.7946127
106184,Arundale Primary School,England,,,,,,,Lowry Grove,Mottram,Hyde,NULL,SK14 6PW,53.4527649,-2.0208071
100537,Ashbourne College,England,,,,,,,17 Old Court Place,Kensington,London,NULL,W8 4PL,51.5026736,-0.1897741
112686,Ashbourne Hilltop Primary and Nursery School,England,,,,,,,Wyaston Road,NULL,Ashbourne,NULL,DE6 1NB,53.0075583,-1.7277473
112678,Ashbourne Primary School,England,,,,,,,Cokayne Avenue,NULL,Ashbourne,NULL,DE6 1EJ,53.0200065,-1.7261386
119854,Ashbridge Independent School,England,,,,,,,Lindle Lane,Hutton,Preston,NULL,PR4 4AQ,53.736083,-2.7500783
143532,Ashbrooke School,England,,,,,,,Ashbrooke Road,Sunderland,NULL,NULL,SR2 7JA,54.894877,-1.3819234
123814,Ash Church of England Primary School,England,,,,,,,Main Street,Ash,Martock,NULL,TA12 6NS,50.9837345,-2.7521707
149577,Ashcroft School,England,,,,,,,54 Hayes Lane,Exhall,Coventry,NULL,CV7 9BP,52.4681226,-1.4849837
106162,Ashcroft School,England,,,,,,,The Together Trust Centre,Schools Hill,Cheadle,NULL,SK8 1JE,53.3840196,-2.2137787
110563,Ashfold School,England,,,,,,,Dorton House,Dorton,Aylesbury,NULL,HP18 9NG,51.819554,-1.0160635
118937,Ashford School,England,,,,,,,East Hill,NULL,Ashford,NULL,TN24 8PB,51.1492915,0.8778674
123749,Ashlands Church of England Primary School,England,,,,,,,North Street,NULL,Crewkerne,NULL,TA18 7AL,50.8875415,-2.796224
135975,Ashlea House School,England,,,,,,,Ashlea House,474 Stockport Road,Manchester,NULL,M34 6ET,53.4410703,-2.1185703
133948,Ashley Manor Preparatory School,England,,,,,,,London Road,Charlton Kings,Cheltenham,NULL,GL52 6NR,51.8914626,-2.0512785
149714,Ashley Park School,England,,,,,,,47 Hersham Road,NULL,Walton-on-Thames,NULL,KT12 1LE,51.3791909,-0.4119346
110356,Ashmead Combined School,England,,,,,,,Cole Road,NULL,Aylesbury,NULL,HP21 8SU,51.8018133,-0.8200553
148797,Ash Meadow School,England,,,,,,,Jubits Lane,St Helens,NULL,NULL,WA9 4RT,53.4164658,-2.7242177
108912,Ashton Gate Primary School,England,,,,,,,Ashton Gate Road,NULL,Bristol,NULL,BS3 1SZ,51.4431419,-2.6148335
102546,Ashton House School,England,,,,,,,50-52 Eversley Crescent,Isleworth,NULL,NULL,TW7 4LW,51.4775678,-0.3464655
117352,Ashtree Primary School and Nursery,England,,,,,,,Chertsey Rise,NULL,Stevenage,NULL,SG2 9JQ,51.8974496,-0.1655889
121758,Ashville College,England,,,,,,,Green Lane,NULL,Harrogate,NULL,HG2 9JP,53.9737935,-1.5520919
130595,Askham Bryan College,England,,,,,,,Askham Bryan,NULL,York,NULL,YO23 3FR,53.9208565,-1.1615792
148189,Aspiration House School,England,,,,,,,Aspiration House,Church Road,Boston,NULL,PE22 0NX,52.9811651,0.0436381
139962,Aspire Ap School,England,,,,,,,Hall Green Baptist Church,1250 Stratford Road,Birmingham,NULL,B28 9EJ,52.4332983,-1.8452249
135608,Aspire AP School 2,England,,,,,,,70 Raglan Road,NULL,Smethwick,NULL,B66 3ND,52.4900106,-1.9573244
149444,Aspire Learning,England,,,,,,,"Coombe Cliff, Coombe Road",NULL,Croydon,NULL,CR0 5SP,51.3619135,-0.096632
142779,ASPIRE: Lifeskills,England,,,,,,,Town Hall Chambers,Town Hall Passage,Leicestershire,NULL,LE11 3EB,52.7704737,-1.2059006
146350,Aspris Telford School,England,,,,,,,Dale Road,Coalbrookdale,Telford,NULL,TF8 7DT,52.6346916,-2.4900224
138878,Assess Education,England,,,,,,,260 Picton Road,NULL,Liverpool,NULL,L15 4LP,53.3992199,-2.9231939
148802,Assess Education North West,England,,,,,,,193 Picton Road,Wavertree,NULL,NULL,L15 4LG,53.3992199,-2.9231939
135988,Assunnah Primary School,England,,,,,,,565 A,HIGH ROAD,TOTTENHAM,NULL,N17 6SB,51.5958296,-0.0688979
147911,Atelier21 Future School,England,,,,,,,Broadfield Park,Brighton Road,Crawley,NULL,RH11 9RZ,51.0964147,-0.1964303
148652,Ateres Beis Yaakov,England,,,,,,,27 Green Lane,London,NULL,NULL,NW4 2NL,51.5846355,-0.2152307
147208,Ateres Elisheva,England,,,,,,,Beis Menachem,Park Lane,NULL,NULL,M7 4JD,53.515457,-2.2611086
138118,Ateres Girls High School,England,,,,,,,Willow Grove,Felling,Gateshead,NULL,NE10 9PQ,54.9494005,-1.5648718
150238,Athena School,England,,,,,,,167 Thorney Bay Road,NULL,Canvey Island,NULL,SS8 0HN,51.5148684,0.585525
143027,Attenborough School,England,,,,,,,NULL,NULL,NULL,NULL,NULL,52.906541,-1.231287
120926,Attleborough Primary School,England,,,,,,,Besthorpe Road,NULL,Attleborough,NULL,NR17 2NA,52.5184011,1.0229294
132119,Auckland College,England,,,,,,,65-67 Parkfield Road,NULL,Liverpool,NULL,L17 4LE,53.3795062,-2.948653
146790,Aurora Beeches School,England,,,,,,,Aurora Boveridge College,Cranborne,Wimborne,NULL,BH21 5RT,50.9329964,-1.902746
136003,Aurora Brooklands School,England,,,,,,,159 Longmeanygate,Midge Hall,Leyland,NULL,PR26 7TB,53.696429,-2.7417608
149579,Aurora Cedars School,England,,,,,,,39 Compton Road West,Compton,Wolverhampton,NULL,WV3 9DW,52.586364,-2.1665956
121229,Aurora Eccles School,England,,,,,,,Quidenham,NULL,Norwich,NULL,NR16 2NZ,52.461143,0.973499
149186,Aurora Fairway School,England,,,,,,,High Leys,NULL,St Ives,NULL,PE27 6AL,52.3304918,-0.0868286
143839,Aurora Hanley School,England,,,,,,,Cambrian Way,off Eaves Lane,Stoke on Trent,NULL,ST2 8PQ,53.0274432,-2.1346213
138563,Aurora Hedgeway School,England,,,,,,,Rookery Lane,NULL,Pilning,NULL,BS35 4JN,51.55959,-2.614193
135543,Aurora Keyes Barn School,England,,,,,,,Station Rd,Salwick,NULL,NULL,PR4 0YH,53.7780342,-2.8177309
110920,Aurora Meldreth Manor School,England,,,,,,,Fenny Lane,Meldreth,Royston,NULL,SG8 6LG,52.0987292,0.0044469
148930,Aurora Poppyfield School,England,,,,,,,Lower Road,Effingham,NULL,NULL,KT24 5JP,51.2733612,-0.3980424
144730,Aurora Redehall School,England,,,,,,,Redehall Road,Smallfield,NULL,NULL,RH6 9QA,51.1668191,-0.1148017
151119,Aurora Rowan School,England,,,,,,,Dysons Wood,Tokers Green End,Reading,NULL,RG4 9EY,51.4955975,-0.9874837
151750,Aurora Ryefields School,England,,,,,,,80 Parker Street,NULL,Derby,NULL,DE1 3HF,52.9290595,-1.4857364
148662,Aurora Severnside School,England,,,,,,,Unit A21,Berkeley Green Science and Technology Park,Gloucestershire,NULL,GL13 9FB,51.6906512,-2.4996299
149594,Aurora Summerfields School,England,,,,,,,Village Way,NULL,Wilmslow,NULL,SK9 2GH,53.336951,-2.2173111
150136,Aurora Wilden View School,England,,,,,,,Worcester Road,Torton,Kidderminster,NULL,DY11 7RR,52.3471446,-2.2282941
138884,Aurora Woodlands School,England,,,,,,,Woodlands,Holly Tree Close,Lancashire,NULL,BB3 2NG,53.6797562,-2.4648926
142333,Austen House,England,,,,,,,Swineherd Farm,Cob Castle Road,Rossendale,NULL,BB4 5TS,53.7097057,-2.3406558
112453,Austin Friars,England,,,,,,,Etterby Scaur,NULL,Carlisle,NULL,CA3 9PB,54.90735,-2.94968
105122,Avalon School,England,,,,,,,Caldy Road,West Kirby,Wirral,NULL,CH48 2HE,53.3643179,-3.1729296
101962,Avenue House School,England,,,,,,,70 The Avenue,NULL,London,NULL,W13 8LS,51.5168684,-0.3190612
134978,Avocet House,England,,,,,,,The Old Vicarage,School Lane,Heckingham,NULL,NR14 6QP,52.5313152,1.5135786
126523,Avondale Preparatory School,England,,,,,,,High Street,Bulford,Salisbury,NULL,SP4 9DR,51.1918237,-1.7626466
102872,Avon House Preparatory School,England,,,,,,,490 High Road,NULL,Woodford Green,NULL,IG8 0PN,51.6147066,0.0256632
140354,Avon Park School,England,,,,,,,St John's Avenue,NULL,Rugby,NULL,CV22 5HR,52.3605361,-1.2365615
148043,Aya College (Educational Provision),England,,,,,,,Holly Lodge,16 Edith Road,London,NULL,SE25 5PQ,51.3921697,-0.0910597
114101,Aycliffe Village Primary and Nursery School,England,,,,,,,North Terrace,Aycliffe Village,Newton Aycliffe,NULL,DL5 6LG,54.5984202,-1.5619921
135155,Ayesha Siddiqa Girls School,England,,,,,,,165-169 The Broadway,NULL,Southall,NULL,UB1 1LS,51.5121227,-0.3838568
118563,Aylesham Primary School,England,,,,,,,Attlee Avenue,Aylesham,Canterbury,NULL,CT3 3BS,51.2273393,1.1973224
120731,Ayscoughfee Hall School,England,,,,,,,Welland Hall,London Road,Spalding,NULL,PE11 2TE,52.78217,-0.1526983
121738,Aysgarth School,England,,,,,,,Newton-le-Willows,NULL,Bedale,NULL,DL8 1TF,54.2965202,-1.6821199
143048,Azbuka Russian-English Bilingual School,England,,,,,,,Studland Hall,Studland Street,NULL,NULL,W6 0JS,51.4937823,-0.2342196
134417,Azhar Academy Girls School,England,,,,,,,"Block F, Tennyson Road",Forest Gate,London,NULL,E15 4DR,51.5393732,0.0085131
101680,Babington House School,England,,,,,,,Grange Drive,NULL,Chislehurst,NULL,BR7 5ES,51.4183795,0.0496271
103751,Bablake School,England,,,,,,,Coundon Road,Coventry,NULL,NULL,CV1 4AU,52.4134331,-1.5205334
100255,Baden-Powell School,England,,,,,,,Ferron Road,NULL,London,NULL,E5 8DN,51.5577867,-0.0583211
123042,Badgemore Primary School,England,,,,,,,Hop Gardens,NULL,Henley-on-Thames,NULL,RG9 2HL,51.5403329,-0.9117611
119978,Badgerbrook Primary School,England,,,,,,,Badger Drive,Whetstone,Leicester,NULL,LE8 6ZW,52.5611017,-1.1766337
109337,Badminton School,England,,,,,,,Westbury Road,Westbury-on-Trym,Bristol,NULL,BS9 3BA,51.4850913,-2.6174585
103765,Baginton Fields School,England,,,,,,,Sedgemoor Road,NULL,Coventry,NULL,CV3 4EA,52.3808948,-1.4764013
136258,Bahr Academy,England,,,,,,,72 Sceptre Street,NULL,Newcastle-upon-Tyne,NULL,NE4 6PR,54.9711171,-1.6407016
112870,Bakewell Methodist Junior School,England,,,,,,,Stoney Close,NULL,Bakewell,NULL,DE45 1FR,53.2063665,-1.67807
150171,Balance Alternative Provision,England,,,,,,,"The White Building, Lock Hill",Ferrybridge,Knottingley,NULL,WF11 8NE,53.7140897,-1.2674518
126006,Balcombe CofE Controlled Primary School,England,,,,,,,London Road,Balcombe,Haywards Heath,NULL,RH17 6HS,51.0584342,-0.134693
101181,Bales College,England,,,,,,,2j Kilburn Lane,NULL,London,NULL,W10 4AA,51.528454,-0.2154214
116524,Ballard School,England,,,,,,,Fernhill Lane,NULL,New Milton,NULL,BH25 5SU,50.7617382,-1.6579013
119312,Balshaw Lane Community Primary School,England,,,,,,,Bredon Avenue,Euxton,Chorley,NULL,PR7 6NS,53.6598768,-2.6646421
123740,Baltonsborough Church of England Voluntary Controlled Primary School,England,,,,,,,Ham Street,Baltonsborough,Glastonbury,NULL,BA6 8PX,51.1118135,-2.6534291
132134,Bancroft's Preparatory School,England,,,,,,,611-627 High Road,NULL,Woodford Green,NULL,IG8 0RF,51.6196768,0.0266543
102875,Bancroft's School,England,,,,,,,611-627 High Road,NULL,Woodford Green,NULL,IG8 0RF,51.6196768,0.0266543
148346,Banks House School,England,,,,,,,"Bright House, 51 Wendene",NULL,Norwich,NULL,NR5 9HA,52.636297,1.2165668
149911,Bankside School,England,,,,,,,The Rhydd,Hanley Castle,Malvern,NULL,WR8 0AD,52.1030664,-2.2407092
100113,Bannockburn Primary School,England,,,,,,,Plumstead High Street,NULL,London,NULL,SE18 1HE,51.4871728,0.0946131
125318,Banstead Preparatory School,England,,,,,,,Sutton Lane,NULL,Banstead,NULL,SM7 3RA,51.3297466,-0.1941331
125392,Barfield Prep School,England,,,,,,,NULL,Runfold,Guildford,NULL,GU10 1PB,51.2194438,-0.7597181
130424,Barking and Dagenham College,England,,,,,,,Dagenham Road,NULL,Romford,NULL,RM7 0XU,51.5604793,0.1749016
121635,Barkston Ash Catholic Primary School,England,,,,,,,London Road,Barkston Ash,Tadcaster,NULL,LS24 9PS,53.8188429,-1.258407
113018,Barlborough Hall School,England,,,,,,,Barlborough Park,Barlborough,Chesterfield,NULL,S43 4TJ,53.2991293,-1.2846705
121548,Barlow Church of England Voluntary Controlled Primary School,England,,,,,,,Park Road,Barlow,Selby,NULL,YO8 8ES,53.753253,-1.0233325
119808,Barnacre Road Primary School,England,,,,,,,Barnacre Road,Longridge,NULL,NULL,PR3 2PD,53.8346092,-2.6099885
114336,Barnard Castle School,England,,,,,,,Newgate,NULL,Barnard Castle,NULL,DL12 8UN,54.5416694,-1.9114939
124875,Barnardiston Hall Preparatory School,England,,,,,,,Barnardiston,NULL,Haverhill,NULL,CB9 7TG,52.1245002,0.5019184
145998,Barnes Farm Junior School,England,,,,,,,Henniker Gate,Chelmer Village,Chelmsford,NULL,CM2 6QH,51.7385371,0.5079584
130425,Barnet and Southgate College,England,,,,,,,Wood Street,NULL,Barnet,NULL,EN5 4AZ,51.6524672,-0.200483
131261,Barnet Hill Academy,England,,,,,,,10a Montagu Road,Hendon,London,NULL,NW4 3ES,51.5798104,-0.2360442
130524,Barnsley College,England,,,,,,,PO Box 266,Church Street,Barnsley,NULL,S70 2YW,53.5563581,-1.4824536
115720,Barnwood Park School,England,,,,,,,St Lawrence Road,Barnwood,Gloucester,NULL,GL4 3QU,51.8570068,-2.2092048
114787,Barons Court Primary School and Nursery,England,,,,,,,Avenue Road,NULL,Westcliff-on-Sea,NULL,SS0 7PJ,51.5387901,0.7026526
151434,Barraclough Hall School,England,,,,,,,"Barraclough, 1 Bryan Road",Edgerton,Huddersfield,NULL,HD2 2AL,53.6577727,-1.8060549
143179,Barrow Hill Primary Academy,England,,,,,,,Station Road,Barrow Hill,Chesterfield,NULL,S43 2PG,53.2734212,-1.3757695
125366,Barrow Hills School,England,,,,,,,Roke Lane,Witley,Godalming,NULL,GU8 5NY,51.1511896,-0.6563647
109136,Barrs Court Primary School,England,,,,,,,Stephens Drive,Barrs Court,Bristol,NULL,BS30 7JB,51.4470448,-2.4938619
141191,Barton Hill Academy,England,,,,,,,Queen Ann Road,Barton Hill,Bristol,NULL,BS5 9TX,51.4536281,-2.5648798
130701,Barton Peveril Sixth Form College,England,,,,,,,Chestnut Avenue,NULL,Eastleigh,NULL,SO50 5ZA,50.9620787,-1.3660921
106575,Barugh Green Primary School,England,,,,,,,Higham Common Road,Barugh Green,Barnsley,NULL,S75 1LD,53.5661335,-1.5338229
107987,Barwick-in-Elmet Church of England Voluntary Controlled Primary School,England,,,,,,,Chapel Lane,Barwick-in-Elmet,Leeds,NULL,LS15 4HL,53.829584,-1.3919757
130688,Basingstoke College of Technology,England,,,,,,,Worting Road,NULL,Basingstoke,NULL,RG21 8TN,51.2641017,-1.0968902
100513,Bassett House School,England,,,,,,,60 Bassett Road,London,NULL,NULL,W10 6JP,51.5182841,-0.2176078
136265,Baston House School,England,,,,,,,Baston Road,Hayes,Bromley,NULL,BR2 7AB,51.3716074,0.022631
138147,Bath Academy,England,,,,,,,27 Queen Square,NULL,Bath,NULL,BA1 2HX,51.3839441,-2.3633412
130558,Bath College,England,,,,,,,Avon Street,NULL,Bath,NULL,BA1 1UP,51.3794936,-2.3626664
107736,Batley Parish Church of England Voluntary Aided Junior Infant and Nursery School,England,,,,,,,Stocks Lane,NULL,Batley,NULL,WF17 8PA,53.7163213,-1.6368395
114622,Battle Abbey School,England,,,,,,,High street,Battle,East Sussex,NULL,TN33 0AD,50.9153136,0.4866772
108595,Battle Hill Primary School,England,,,,,,,Berwick Drive,Battle Hill Estate,Wallsend,NULL,NE28 9DH,55.00883,-1.518493
124719,Bawdsey Church of England Voluntary Controlled Primary School,England,,,,,,,School Lane,Bawdsey,Woodbridge,NULL,IP12 3AR,52.0075121,1.421172
133480,Bay Primary School,England,,,,,,,St Alban Road,NULL,Bridlington,NULL,YO16 7SZ,54.0942383,-0.1947333
148551,Baytul Ilm Secondary School,England,,,,,,,12a Clarke Road,Bletchley,NULL,NULL,MK1 1LG,52.0123078,-0.7259657
110550,Beachborough School,England,,,,,,,Westbury,NULL,Brackley,NULL,NN13 5LB,52.0160767,-1.096188
124978,Beacon Hill Community Primary School,England,,,,,,,Beacon Hill Road,NULL,Hindhead,NULL,GU26 6NR,51.1225619,-0.7523949
147733,Beacon Lights Schools,England,,,,,,,Lister Lane,NULL,Halifax,NULL,HX1 5JL,53.7221588,-1.8762721
114021,Beamish Primary School,England,,,,,,,Co-operative Villas,Beamish,Stanley,NULL,DH9 0QN,54.7550879,-1.6122484
115786,Beaudesert Park School,England,,,,,,,Minchinhampton,NULL,Stroud,NULL,GL6 9AF,51.700538,-2.2118031
123460,Beckbury CofE Primary School,England,,,,,,,Beckbury,NULL,Shifnal,NULL,TF11 9DQ,52.6096711,-2.3470982
150896,Becker School,England,,,,,,,Ruby Street,NULL,Batley,NULL,WF17 8HL,53.7208339,-1.6469118
123742,Beckington Church of England First School,England,,,,,,,Church Street,Beckington,Frome,NULL,BA11 6TG,51.2641007,-2.2887286
116527,Bedales School,England,,,,,,,Church Road,Steep,Petersfield,NULL,GU32 2DG,51.0205606,-0.9423599
114653,Bede's Prep School,England,,,,,,,Duke's Drive,NULL,Eastbourne,NULL,BN20 7XL,50.7521389,0.2682996
114657,Bede's Senior School,England,,,,,,,The Dicker,Upper Dicker,Hailsham,NULL,BN27 3QH,50.86657,0.2026312
130597,Bedford College,England,,,,,,,Cauldwell Street,NULL,Bedford,NULL,MK42 9AH,52.1331972,-0.4678612
109727,Bedford Girls' School,England,,,,,,,Cardington Road,NULL,Bedford,NULL,MK42 0BX,52.1326897,-0.4605939
109717,Bedford Greenacre Independent School,England,,,,,,,Manton Heights,NULL,Bedford,NULL,MK41 7BJ,52.154447,-0.4772426
109728,Bedford Modern School,England,,,,,,,Manton Lane,NULL,Bedford,NULL,MK41 7NT,52.1476735,-0.4811446
109461,Bedford Road Primary School,England,,,,,,,Hillgrounds Road,Kempston,Bedford,NULL,MK42 8QH,52.118791,-0.4966005
109718,Bedford School,England,,,,,,,De Parys Avenue,NULL,Bedford,NULL,MK40 2TU,52.141506,-0.4662623
123599,Bedstone College,England,,,,,,,Bedstone,Bucknell,NULL,NULL,SY7 0BG,52.373604,-2.9305387
135229,Beechcliffe Special School,England,,,,,,,Green Head Road,Utley,Keighley,NULL,BD20 6ED,53.8785614,-1.9143558
131181,Beech Grove School,England,,,,,,,Forest Drive,NULL,Dover,NULL,CT15 4FB,51.2282059,1.2407417
111474,Beech Hall School,England,,,,,,,Beech Hall Drive,Tytherington,Macclesfield,NULL,SK10 2EG,53.2698022,-2.1306456
105855,Beech House School,England,,,,,,,184 Manchester Road,NULL,Rochdale,NULL,OL11 4JQ,53.60936,-2.1651302
139414,Beech Lodge School,England,,,,,,,Stubbings Lane,Henley Road,Hurley,NULL,SL6 6QL,51.5236099,-0.7777247
117620,Beechwood Park School,England,,,,,,,Markyate,NULL,St Albans,NULL,AL3 8AW,51.8189684,-0.4845488
118949,Beechwood School,England,,,,,,,12 Pembury Road,NULL,Tunbridge Wells,NULL,TN2 3QD,51.1359273,0.2872199
102867,Beehive Preparatory School,England,,,,,,,233 Beehive Lane,Redbridge,Ilford,NULL,IG4 5ED,51.5809603,0.0582174
121231,Beeston Hall School,England,,,,,,,West Runton,Cromer,Cromer,NULL,NR27 9NQ,52.937304,1.23392
136236,Begdale House School,England,,,,,,,Begdale Road,Elm,Wisbech,NULL,PE14 0AZ,52.6349829,0.1512133
131170,Beis Aharon School,England,,,,,,,83-95 Bethune Road,London,NULL,NULL,N16 5ED,51.5710992,-0.081702
102171,Beis Chinuch Lebonos Girls School,England,,,,,,,Woodberry Down Centre,Woodberry Down,London,NULL,N4 2SH,51.5710829,-0.0910156
149301,Beis Chinuch Lebonos Westcliff,England,,,,,,,121 - 127 North Road,Westcliff-on-Sea,Southend-on-Sea,NULL,SS0 7AH,51.5425751,0.7022827
135168,Beis Hatalmud School,England,,,,,,,62 Wellington Street West,Broughton,Salford,NULL,M7 2FD,53.5056109,-2.261502
136117,Beis Malka Girls school,England,,,,,,,399-401 Bury New Road,NULL,Salford,NULL,M7 2BT,53.5063757,-2.2611726
100295,Beis Malka Girls' School,England,,,,,,,93 Alkham Road,NULL,LONDON,NULL,N16 6XD,51.5666036,-0.0697988
140492,Beis Medrash Elyon,England,,,,,,,233 West Hendon Broadway,West  Hendon,London,NULL,NW9 7DH,51.579285,-0.2420107
100293,Beis Rochel d'Satmar Girls' School,England,,,,,,,51-57 Amhurst Park,NULL,London,NULL,N16 5DL,51.5744735,-0.0802334
147296,Beis Rochel D'satmar School,England,,,,,,,"180 Bethune Road, London",NULL,NULL,NULL,N16 5DS,51.5742128,-0.0832635
147272,Beis Rochel Mcr Girls school ltd,England,,,,,,,315-317 Great clowes st,Salford,NULL,NULL,M7 2FZ,53.5057563,-2.2640607
137505,Beis Ruchel D'Satmar London,England,,,,,,,117 Stamford Hill,NULL,London,NULL,N16 5RS,51.572717,-0.0733632
130286,Beis Ruchel Girls School,England,,,,,,,87 Devonshire Street,Salford,Manchester,NULL,M7 4AE,53.5057148,-2.2531439
136086,Beis Ruchel Girls School,England,,,,,,,11 Norton Street,Salford,NULL,NULL,M7 4AJ,53.5061992,-2.253437
131026,Beis Soroh Schneirer,England,,,,,,,Arbiter House,Wilberforce Road,West Hendon,NULL,NW9 6AX,51.5802401,-0.2396916
131342,Beis Trana Girls' School,England,,,,,,,186 Upper Clapton Road,NULL,London,NULL,E5 9DH,51.56635,-0.059966
136817,Beis Yaakov Girls School,England,,,,,,,11 Amhurst Park,London,London,NULL,N16 5DH,51.5737955,-0.075524
109382,Belgrave School,England,,,,,,,The Willows,159 Four Acres,Bristol,NULL,BS13 8RA,51.4064925,-2.6262907
135484,Bellefield Primary and Nursery School,England,,,,,,,Windermere Road,NULL,Trowbridge,NULL,BA14 8TE,51.3273464,-2.2003093
148062,Belle Vue School,England,,,,,,,Jockey Lane,Cranbrook,NULL,NULL,TN17 3JN,51.0978124,0.5357458
101259,Bell Lane Primary School,England,,,,,,,Bell Lane,Hendon,London,NULL,NW4 2AS,51.5873729,-0.216353
121746,Belmont Grosvenor School,England,,,,,,,Swarcliffe Hall,Birstwith,Harrogate,NULL,HG3 2JG,54.030251,-1.641964
131025,Belmont School,England,,,,,,,Haslingden Road,Rawtenstall,Rossendale,NULL,BB4 6RX,53.7002689,-2.3003873
125376,Belmont School,England,,,,,,,Feldemore,Holmbury St Mary,Dorking,NULL,RH5 6LQ,51.1897491,-0.4052171
147471,Belong School Devon,England,,,,,,,Grace Road West,NULL,Exeter,NULL,EX2 8PU,50.7051799,-3.5313444
146671,Belong School Gloucestershire,England,,,,,,,Wild Goose Lodge,Shepherds Patch,Slimbridge,NULL,GL2 7BP,51.7366976,-2.3927742
101484,Benedict House Preparatory School,England,,,,,,,1-5 Victoria Road,NULL,Sidcup,NULL,DA15 7HD,51.4284143,0.1010142
118939,Benenden School,England,,,,,,,Cranbrook Road,Benenden,Cranbrook,NULL,TN17 4AA,51.0755106,0.5713305
114412,Benfield Primary School,England,,,,,,,255 Old Shoreham Road,Portslade,Brighton,NULL,BN41 1XS,50.8376095,-0.2094359
135805,Benjamin College,England,,,,,,,4 Wren Path,Fairford Leys,AYLESBURY,NULL,HP19 7AR,51.8185342,-0.8436713
103362,Benson Community School,England,,,,,,,Benson Road,Hockley,Birmingham,NULL,B18 5TD,52.4979029,-1.9309404
104174,Bentley West Primary School Additionally Resourced for Hearing Impaired,England,,,,,,,Monmouth Road,Bentley,Walsall,NULL,WS2 0EQ,52.5902819,-2.0287335
151477,Benton House School,England,,,,,,,"Benton House, Front Street",NULL,Benton,NULL,NE7 7XE,55.0097576,-1.5760186
108083,Benton Park School,England,,,,,,,Harrogate Road,Rawdon,Leeds,NULL,LS19 6LX,53.8564549,-1.6814903
145192,Bep Academy,England,,,,,,,62-64 Western Road,ROMFORD,NULL,NULL,RM1 3LP,51.5787318,0.1879471
149028,Bere Clinic School,England,,,,,,,Hemlock Road,Waterlooville,NULL,NULL,PO8 8QT,50.8993582,-1.0346559
115800,Berkhampstead School,England,,,,,,,Pittville Circus Road,NULL,Cheltenham,NULL,GL52 2QA,51.901814,-2.0595257
117653,Berkhamsted Prep and Pre-Prep School,England,,,,,,,Chesham Road,NULL,Berkhamsted,NULL,HP4 2SZ,51.7461738,-0.5739639
117604,Berkhamsted School,England,,,,,,,Overton House,133 High Street,Berkhamsted,NULL,HP4 2DJ,51.7592853,-0.5618973
107599,Berry Brow Infant and Nursery School,England,,,,,,,"Berry Brow I & N School, Birch Road",Berry Brow,Huddersfield,NULL,HD4 7LP,53.6214386,-1.7916056
113371,Berrynarbor Church of England Primary School,England,,,,,,,Berrynarbor,NULL,Ilfracombe,NULL,EX34 9SE,51.2005887,-4.0618281
150618,Bescot Hall,England,,,,,,,Scarborough Road,NULL,Walsall,NULL,WS2 9TY,52.5802648,-1.9997692
142828,Best Futures,England,,,,,,,The Stables,Church Lane,Grimsby,NULL,DN37 7AW,53.5510247,-0.1864774
150914,Bestwood Village School,England,,,,,,,School Walk,Bestwood Village,Nottingham,NULL,NG6 8UU,53.0246313,-1.1784285
118978,Bethany School,England,,,,,,,Goudhurst,NULL,Cranbrook,NULL,TN17 1LB,51.1359685,0.4837693
107168,Bethany School,England,,,,,,,Finlay Street,NULL,Sheffield,NULL,S3 7PS,53.3859247,-1.4848865
101388,Beth Jacob Grammar School for Girls,England,,,,,,,Stratford Road,Hendon,London,NULL,NW4 2AT,51.5870502,-0.2177888
149194,Bettws Lifehouse,England,,,,,,,Kingsland Grange,Old Roman Road,Shropshire,NULL,SY3 9AH,52.6981925,-2.7655403
117971,Beverley Minster Church of England Voluntary Controlled Primary School,England,,,,,,,St Giles Croft,NULL,Beverley,NULL,HU17 8LA,53.8393605,-0.437296
130670,Bexhill College,England,,,,,,,Penland Road,NULL,Bexhill-on-Sea,NULL,TN40 2JG,50.8485332,0.4915685
148646,BFC School,England,,,,,,,Seasiders Way,NULL,Blackpool,NULL,FY1 6JJ,53.8053544,-3.0493091
132370,BFS Naples,England,,,,,,,Hq Afsouth,NULL,Naples,NULL,NULL,55.378051,-3.435973
101682,Bickley Park School,England,,,,,,,24 Page Heath Lane,Bickley,NULL,NULL,BR1 2DS,51.4009231,0.0430411
123461,Bicton CofE Primary School and Nursery,England,,,,,,,Bicton Lane,Bicton,Shrewsbury,NULL,SY3 8EH,52.7284499,-2.8192128
105060,Bidston Avenue Primary School,England,,,,,,,Tollemache Road,Claughton,Birkenhead,NULL,CH41 0DQ,53.3964849,-3.0624608
141411,Big Creative Independent School,England,,,,,,,Uplands House,Blackhorse Lane,Walthamstow,NULL,E17 5QJ,51.5934288,-0.040309
120371,Billingborough Primary School,England,,,,,,,Victoria Street,Billingborough,Sleaford,NULL,NG34 0NX,52.8961635,-0.3407849
135813,Billingshurst Primary School,England,,,,,,,Upper Station Road,NULL,Billingshurst,NULL,RH14 9RE,51.0191639,-0.4531539
125773,Bilton Grange School,England,,,,,,,Dunchurch,NULL,Rugby,NULL,CV22 6QU,52.342086,-1.2788582
103591,Birchfield Independent Girls' School,England,,,,,,,30 Beacon Hill,NULL,Birmingham,NULL,B6 6JU,52.5072175,-1.891622
123616,Birchfield School,England,,,,,,,Harriot's Hayes Lane,Albrighton,Wolverhampton,NULL,WV7 3AF,52.6387038,-2.2548076
109893,Birch Hill Primary School,England,,,,,,,Leppington,NULL,Bracknell Forest,NULL,RG12 7WW,51.3904985,-0.7508837
148566,Birchwood School,England,,,,,,,Ainscough Road,Birchwood,NULL,NULL,WA3 7PW,53.4154394,-2.5245676
150807,Birchwood School Bolton,England,,,,,,,Milnthorpe Road,Breightmet,Bolton,NULL,BL2 6PD,53.58171,-2.3861293
107163,Birkdale School,England,,,,,,,Oakholme Road,NULL,Sheffield,NULL,S10 3DH,53.3745735,-1.504701
105123,Birkenhead School,England,,,,,,,58 Beresford Road,Oxton,Prenton,NULL,CH43 2JD,53.3847698,-3.0552184
143418,Birmingham Independent College,England,,,,,,,Albert Hall,Witton Road,Birmingham,NULL,B6 5NU,52.5035102,-1.8965765
130466,Birmingham Metropolitan College,England,,,,,,,Jennens Road,NULL,Birmingham,NULL,B4 7PS,52.4829706,-1.8893009
105280,Birtenshaw School Bolton,England,,,,,,,Darwen Road,Bromley Cross,Bolton,NULL,BL7 9AB,53.6106822,-2.414322
145182,Birtenshaw School Merseyside,England,,,,,,,82 Higher Lane,Liverpool,Merseyside,NULL,L9 7AB,53.4593609,-2.935898
136211,Birtley House Independent School,England,,,,,,,Fawkham Road,West Kingsdown,Sevenoaks,NULL,TN15 6AY,51.3548322,0.2701331
130657,Bishop Auckland College,England,,,,,,,Woodhouse Lane,NULL,Bishop Auckland,NULL,DL14 6JZ,54.6509681,-1.6937988
130584,Bishop Burton College,England,,,,,,,York Road,Bishop Burton,Beverley,NULL,HU17 8QG,53.851421,-0.50636
100978,Bishop Challoner Catholic School,England,,,,,,,352 Commercial Road,NULL,London,NULL,E1 0LB,51.5137796,-0.0512414
101683,Bishop Challoner School,England,,,,,,,228 Bromley Road,Shortlands,Bromley,NULL,BR2 0BS,51.4068909,-0.0037041
119616,Bishop Martin Church of England Primary School,England,,,,,,,Birkrig,Digmoor,Skelmersdale,NULL,WN8 9BN,53.5381685,-2.7609127
125328,Bishopsgate School,England,,,,,,,Bishopsgate Road,Englefield Green,NULL,NULL,TW20 0YJ,51.4402744,-0.5851453
123700,Bishops Hull Primary School,England,,,,,,,Bishops Hull Hill,Bishops Hull,Taunton,NULL,TA1 5EB,51.0161004,-3.1335631
117605,Bishop's Stortford College,England,,,,,,,School House,Maze Green Road,Bishop's Stortford,NULL,CM23 2PQ,51.8717237,0.1484885
135486,Bishopstrow College,England,,,,,,,Bishopstrow Road,Bishopstrow,Warminster,NULL,BA12 9HU,51.194428,-2.156208
103754,BKHS Bablake Preparatory School,England,,,,,,,Coundon Road,Coventry,NULL,NULL,CV1 4AU,52.4134331,-1.5205334
130736,Blackburn College,England,,,,,,,Blackburn College,Harrison Centre,Blackburn,NULL,BB2 1LH,53.7498813,-2.489215
133392,Blackford Education (Schools) Ltd t/a the Libra School,England,,,,,,,Edgemoor Court,South Radworthy,South Molton,NULL,EX36 3LN,51.0792544,-3.788688
100756,Blackheath High School GDST,England,,,,,,,27 Vanbrugh Park,Blackheath,NULL,NULL,SE3 7AG,51.4778656,0.0156327
100199,Blackheath Prep,England,,,,,,,4 St German's Place,Blackheath,London,NULL,SE3 0NJ,51.4724318,0.0156689
105032,Black Horse Hill Junior School,England,,,,,,,Saughall Massie Road,West Kirby,Wirral,NULL,CH48 6DR,53.3773655,-3.1628797
117052,Blackmarston School,England,,,,,,,Honddu Close,NULL,Hereford,NULL,HR2 7NX,52.0410978,-2.7263491
104592,Blackmoor Park Infants' School,England,,,,,,,45-65 Leyfield Road,West Derby,Liverpool,NULL,L12 9EY,53.4279147,-2.8970451
130739,Blackpool and the Fylde College,England,,,,,,,Ashfield Road,Bispham,Blackpool,NULL,FY2 0HB,53.8594978,-3.0282831
105652,Blackshaw Lane Primary & Nursery School,England,,,,,,,Blackshaw Lane,Heyside,Oldham,NULL,OL2 6NT,53.5667461,-2.1068844
143039,Blackwater Academy,England,,,,,,,14 Riverside Drive,Stechford,Birmingham,NULL,B33 9BF,52.4858226,-1.8155038
116665,Blackwell First School,England,,,,,,,St Catherine's Road,Blackwell,Bromsgrove,NULL,B60 1BN,52.3508403,-2.0157489
113019,Bladon House School,England,,,,,,,Newton Solney,NULL,Burton-on-Trent,NULL,DE15 0TA,52.8195837,-1.6036939
136432,Blessed John Henry Newman Roman Catholic College,England,,,,,,,Broadway,Chadderton,Oldham,NULL,OL9 9QY,53.5378724,-2.1520318
100451,Blessed Sacrament RC Primary School,England,,,,,,,Boadicea Street,Kings Cross,London,NULL,N1 0UF,51.5368845,-0.1185447
148807,Blooming Tree Pre Prep School,England,,,,,,,First Floor,Swarn House,Acton,NULL,W3 9BJ,51.508463,-0.2768095
148153,Blooming Tree Primary School,England,,,,,,,37-38 The Mall,NULL,Ealing,NULL,W5 3TJ,51.5130855,-0.2975399
102694,Blossom House School,England,,,,,,,Blossom House School,Station Road,Surrey,NULL,KT3 6JJ,51.3953869,-0.2386422
123275,Bloxham School,England,,,,,,,Bloxham,NULL,Banbury,NULL,OX15 4PE,52.0231818,-1.37262
143932,Bluebell School Ltd,England,,,,,,,Gloucester Road,Kidsgrove,NULL,NULL,ST7 1EH,53.0911308,-2.2453425
131536,Blue Mountain Education,England,,,,,,,Willow Farm,Off Newton Lane,Cossall,NULL,NG16 2SD,52.9758246,-1.2813207
135576,Blue Skies School,England,,,,,,,126 Maidstone Road,NULL,Chatham,NULL,ME4 6DQ,51.3740942,0.5210768
113577,Blundell's Preparatory School,England,,,,,,,Milestones House,Blundells Road,Tiverton,NULL,EX16 4NA,50.907921,-3.459366
113575,Blundell's School,England,,,,,,,Blundell's Road,NULL,Tiverton,NULL,EX16 4DN,50.9063268,-3.4657876
137318,Bnei Zion Community School,England,,,,,,,49 - 51 Ravensdale Road,NULL,London,NULL,N16 6TJ,51.5749326,-0.0698545
100291,Bnois Jerusalem Girls School,England,,,,,,,"71, 75-81 Amhurst Park",NULL,London,NULL,N16 5DL,51.5745525,-0.082256
136231,Bnos Beis Yaakov Primary School,England,,,,,,,Kingsbury Synagogue,Kingsbury Green,London,NULL,NW9 8XR,51.5917692,-0.2576663
147366,Bnos Margulis Viznitz Girls' School,England,,,,,,,33 Northumberland Street,NULL,NULL,NULL,M7 4DQ,53.5092231,-2.255574
105996,Bnos Yisroel School Manchester,England,,,,,,,Leicester Road,NULL,Salford,NULL,M7 4DA,53.5103326,-2.2528946
136015,Bnos Zion of Bobov,England,,,,,,,65-69 Ravensdale Road,London,NULL,NULL,N16 6TJ,51.5752858,-0.0683487
100298,Bobov Primary Boys School,England,,,,,,,87-90 Egerton Road,London,NULL,NULL,N16 6UE,51.5741115,-0.0683003
135607,Bolnore Village Primary School,England,,,,,,,Updown Hill,Bolnore Village,Haywards Heath,NULL,RH16 4GD,50.990917,-0.1156807
106029,Bolshaw Primary School,England,,,,,,,Cross Road,Heald Green,Cheadle,NULL,SK8 3LW,53.3625135,-2.2284947
130495,Bolton College,England,,,,,,,Deane Road,NULL,Bolton,NULL,BL3 5BG,53.574443,-2.437028
138498,Bolton Islamic Girls School,England,,,,,,,Weston House,Weston Street,Bolton,NULL,BL3 2AW,53.5654499,-2.4241139
105229,Bolton Parish Church CofE Primary School,England,,,,,,,Chadwick Street,NULL,Bolton,NULL,BL2 1JN,53.5760946,-2.4162639
105271,Bolton School Boys' Division,England,,,,,,,Chorley New Road,NULL,Bolton,NULL,BL1 4PA,53.579699,-2.453903
105272,Bolton School Girls' Division,England,,,,,,,Chorley New Road,NULL,Bolton,NULL,BL1 4PB,53.5797063,-2.4564203
149361,Bolton School Infant & Nursery School,England,,,,,,,Chorley New Road,Bolton,NULL,NULL,BL1 4PA,53.5788883,-2.4547185
131867,Bolton Sixth Form College,England,,,,,,,Town Centre Campus,Deane Road,Bolton,NULL,BL3 5BU,53.574673,-2.4359217
123495,Bomere Heath CofE Primary School,England,,,,,,,The Crescent,Bomere Heath,Shrewsbury,NULL,SY4 3PQ,52.7696634,-2.7809982
132640,Bonny Island School,England,,,,,,,C/O Fieldwork Education Limited,30 Skylines Village,London,NULL,E14 9TS,51.4995065,-0.0118716
100752,Bonus Pastor Catholic College,England,,,,,,,Winlaton Road,Downham,Bromley,NULL,BR1 5PZ,51.4265643,-0.0011361
121722,Bootham School,England,,,,,,,51 Bootham,NULL,York,NULL,YO30 7BU,53.9641795,-1.0875494
119973,Booth Wood Primary School,England,,,,,,,Old Ashby Road,NULL,Loughborough,NULL,LE11 4PG,52.767603,-1.2408325
115865,Bordon Infant School,England,,,,,,,Budds Lane,NULL,Bordon,NULL,GU35 0JB,51.116161,-0.8665896
130761,Boston College,England,,,,,,,Rochford Campus,Skirbeck Road,Boston,NULL,PE21 6JF,52.9726828,-0.0154619
122149,Bosworth Independent School,England,,,,,,,The Newton Building,St. Georges Avenue,NULL,NULL,NN2 6JA,52.251223,-0.8883688
116558,Boundary Oak School,England,,,,,,,Roche Court,Wickham Road,Fareham,NULL,PO17 5BL,50.8710028,-1.1772672
133291,Boundary Primary School,England,,,,,,,Dinmore Avenue,NULL,Blackpool,NULL,FY3 7RW,53.8305148,-3.0200864
113929,Bournemouth Collegiate Preparatory School,England,,,,,,,St Osmund's Road,Parkstone,Poole,NULL,BH14 9JY,50.7200248,-1.9376487
113937,Bournemouth Collegiate School,England,,,,,,,College Road,NULL,Bournemouth,NULL,BH5 2DY,50.7245007,-1.8253809
113187,Bovey Tracey Primary School,England,,,,,,,Abbey Road,Bovey Tracey,Newton Abbot,NULL,TQ13 9HZ,50.5944792,-3.6761715
117034,Bowbrook House School,England,,,,,,,Main Street,Peopleton,Worcestershire,NULL,WR10 2EE,52.1525825,-2.0943272
106377,Bowdon Preparatory School for Girls,England,,,,,,,Ashley Road,NULL,Altrincham,NULL,WA14 2LT,53.381429,-2.352988
150911,Bower Lodge School,England,,,,,,,Main Road,NULL,Southampton,NULL,SO45 5TD,50.8744973,-1.4330814
142603,Bow Street School,England,,,,,,,Bow Street,Bilston,NULL,NULL,WV14 7NB,52.567048,-2.0734915
126302,Box Church of England Primary School,England,,,,,,,High Street,Box,Corsham,NULL,SN13 8NF,51.415958,-2.2517423
100150,Boxgrove Primary School,England,,,,,,,Boxgrove Road,Abbey Wood,Greenwich,NULL,SE2 9JP,51.4930763,0.1168786
125388,Box Hill School,England,,,,,,,London Road,Mickleham,Dorking,NULL,RH5 6EA,51.2687739,-0.323642
106147,Brabyns Preparatory School,England,,,,,,,34-36 Arkwright Road,Marple,Stockport,NULL,SK6 7DB,53.3982392,-2.0564891
121757,Brackenfield School,England,,,,,,,128 Duchy Road,NULL,Harrogate,NULL,HG1 2HE,53.9918795,-1.5658965
122961,Bracken Hill School,England,,,,,,,Chartwell Road,Kirkby-in-Ashfield,Nottingham,NULL,NG17 7HZ,53.1001016,-1.2362749
110121,Bradfield College,England,,,,,,,NULL,NULL,Bradfield,NULL,RG7 6AU,51.448818,-1.131924
107461,Bradford Christian School,England,,,,,,,Livingstone Road,Bolton Woods,Bradford,NULL,BD2 1BT,53.8198437,-1.7605912
130532,Bradford College,England,,,,,,,Great Horton Road,NULL,Bradford,NULL,BD7 1AY,53.7916421,-1.7604645
107455,Bradford Grammar School,England,,,,,,,Keighley Road,Bradford,NULL,NULL,BD9 4JP,53.8147241,-1.7698317
112802,Bradley CofE Primary School,England,,,,,,,Yew Tree Lane,Bradley,Ashbourne,NULL,DE6 1PG,53.0088705,-1.6659522
110989,Bradshaw Community Primary School,England,,,,,,,Bradshaw Lane,Grappenhall,Warrington,NULL,WA4 2QN,53.3779031,-2.5435248
136167,Bradshaw Farm Independent School,England,,,,,,,NULL,LONGNOR,Buxton,NULL,SK17 0QY,53.18201,-1.8696367
112512,Bradwell Junior School,England,,,,,,,Hugh Lane,Bradwell,Hope Valley,NULL,S33 9JB,53.3284808,-1.7427771
115386,Braeside School,England,,,,,,,130 High Road,NULL,Buckhurst Hill,NULL,IG9 5SD,51.6314435,0.0353144
112804,Brailsford CofE Primary School,England,,,,,,,Luke Lane,Brailsford,Ashbourne,NULL,DE6 3BY,52.974385,-1.6227856
140814,Brambles School,England,,,,,,,29 Ashworth Lane,NULL,Mottram,NULL,SK14 6NT,53.4545314,-2.0134903
126150,Brambletye School,England,,,,,,,Brambletye School,Lewes Road,East Grinstead,NULL,RH19 3PD,51.1097094,0.0176785
124879,Bramfield House School,England,,,,,,,Walpole Road,Bramfield,Halesworth,NULL,IP19 9AB,52.3087294,1.4977245
147036,Bramley Hill School,England,,,,,,,Chequers Lane,Walton on the Hill,NULL,NULL,KT20 7ST,51.2801685,-0.2503953
106861,Bramley Sunnyside Junior School,England,,,,,,,Flanderwell Lane,Bramley,ROTHERHAM,NULL,S66 3QW,53.4282793,-1.2732612
101393,Brampton College,England,,,,,,,Lodge House,Lodge Road,London,NULL,NW4 4DQ,51.5886822,-0.2221503
113348,Branscombe Church of England Primary School,England,,,,,,,Branscombe,NULL,Seaton,NULL,EX12 3DA,50.691753,-3.1393458
122188,Branton Community Primary School,England,,,,,,,Branton,Powburn,Alnwick,NULL,NE66 4JF,55.4408088,-1.9279369
136936,Brantwood Specialist School,England,,,,,,,1 Kenwood Bank,Nether Edge,Sheffield,NULL,S7 1NU,53.3654458,-1.4894054
105991,Branwood Preparatory School,England,,,,,,,Stafford Road,Monton,Manchester,NULL,M30 9HN,53.4890206,-2.3450295
140039,Break Through School,England,,,,,,,121 Nuxley Road,Belvedere,NULL,NULL,DA17 5JX,51.4799876,0.1438605
148537,Brearley Hall School,England,,,,,,,1 Burnley Road,Luddendenfoot,NULL,NULL,HX2 6HP,53.7223849,-1.9444764
101684,Breaside Preparatory School,England,,,,,,,41-43 Orchard Road,NULL,Bromley,NULL,BR1 2PR,51.4100257,0.034381
121765,Breckenbrough School,England,,,,,,,Sandhutton,NULL,Thirsk,NULL,YO7 4EN,54.2429772,-1.4104037
111587,Breckon Hill Primary School,England,,,,,,,Breckon Hill Road,NULL,Middlesbrough,NULL,TS4 2DS,54.5692577,-1.2210523
117032,Bredon School,England,,,,,,,Pull Court,Bushley,Tewkesbury,NULL,GL20 6AH,52.0233058,-2.2019713
145239,Brenkley School,England,,,,,,,3-5 Brenkley Way,Blezard Business Park,Newcastle-upon-Tyne,NULL,NE13 6DS,55.0607997,-1.629518
105893,Brentnall Primary School,England,,,,,,,Northumberland Street,Higher Broughton,Salford,NULL,M7 4RP,53.5082203,-2.2603649
115429,Brentwood School,England,,,,,,,Middleton Hall Lane,NULL,Brentwood,NULL,CM15 8EE,51.6200041,0.3071993
119021,Brewood Secondary School,England,,,,,,,86 London Road,NULL,Deal,NULL,CT14 9TR,51.2206497,1.3922452
132732,Brian Jackson College,England,,,,,,,Vision House,Units 1 - 6 Grove Mills,Heckmondwike,NULL,WF16 0AD,53.7086296,-1.6679639
149018,Brick Lane School,England,,,,,,,Bacon Street,Tower Hamlets,NULL,NULL,E2 6DY,51.5241435,-0.0705859
150476,Bricklehurst Manor School,England,,,,,,,Bardown Road,Stonegate,Wadhurst,NULL,TN5 7EL,51.0389913,0.3654075
145470,Brickyard Barn Outdoor Learning Centre,England,,,,,,,Brickyard Barn,Mallory Road,NULL,NULL,CV33 9QD,52.2505822,-1.5557793
139264,Bridge House Independent School,England,,,,,,,Grantham Road,NULL,Boston,NULL,PE21 7NL,52.9715745,-0.0583163
149189,Bridge House School,England,,,,,,,1 Stuart Road,Bredbury,NULL,NULL,SK6 2SR,53.431257,-2.1214855
119999,Bridge Junior School,England,,,,,,,Mere Close,Off Mere Road,Leicester,NULL,LE5 3HH,52.6393457,-1.1081179
140227,Bridge School,England,,,,,,,C/O Cambian Education,Metropolitan House,Potters Bar,NULL,EN6 1AG,51.6968182,-0.1915463
142833,Bridge School Malvern,England,,,,,,,Unit 2,Hanley Workshops,Hanley Swan,NULL,WR8 0DX,52.0809135,-2.2941763
105992,Bridgewater School,England,,,,,,,Drywood Hall,Worsley Road,Manchester,NULL,M28 2WQ,53.501247,-2.371515
147206,Bridgeway School,England,,,,,,,Church Road,Bamber Bridge,Lancashire,NULL,PR5 6EP,53.7198843,-2.659002
130803,Bridgwater and Taunton College,England,,,,,,,Bath Road,NULL,Bridgwater,NULL,TA6 4PZ,51.1314099,-2.9870428
105748,Bright Futures School,England,,,,,,,Friezland Lane,Greenfield,Oldham NOT BOLTON,NULL,OL3 7EU,53.5321882,-2.0086553
149443,Bright Minds Creative Academy,England,,,,,,,106-108 Park Lane,NULL,Croydon,NULL,CR0 1JB,51.367509,-0.0965605
146036,Brighton and Hove Clinic School,England,,,,,,,14-18 New Church Road,Hove,NULL,NULL,BN3 4FH,50.828808,-0.1803168
114614,Brighton College,England,,,,,,,Eastern Road,NULL,Brighton,NULL,BN2 0AL,50.8205457,-0.1220767
114621,"Brighton College Nursery, Pre-Prep and Prep School",England,,,,,,,Walpole Lodge,2 Walpole Road,Brighton,NULL,BN2 0EU,50.8200715,-0.1206797
100543,Brighton College Prep Kensington,England,,,,,,,10-13 Princes Gardens,NULL,NULL,NULL,SW7 1ND,51.5000599,-0.1725331
114658,Brighton Girls GDST,England,,,,,,,Montpelier Road,Brighton,NULL,NULL,BN1 3AT,50.8284917,-0.1511599
130669,Brighton Hove and Sussex Sixth Form College,England,,,,,,,205 Dyke Road,NULL,Hove,NULL,BN3 6EG,50.8341808,-0.1513473
133348,Brighton & Hove Montessori School,England,,,,,,,67 Stanford Avenue,Brighton,NULL,NULL,BN1 6FB,50.8412231,-0.1375011
114661,Brighton Waldorf School,England,,,,,,,Roedean Road,Brighton,NULL,NULL,BN2 5RA,50.8176979,-0.1060167
119203,Brindle Gregson Lane Primary School,England,,,,,,,"Brindle Gregson Lane Primary School, Bournes Row",Gregson Lane,Preston,NULL,PR5 0DR,53.7317002,-2.6185746
150900,Brinksway School,England,,,,,,,Yew Street,NULL,Stockport,NULL,SK4 2HG,53.4070059,-2.1753761
106864,Brinsworth Manor Infant School,England,,,,,,,Brinsworth Lane,Brinsworth,ROTHERHAM,NULL,S60 5BX,53.405691,-1.369177
109369,Bristol Grammar School,England,,,,,,,University Road,NULL,Bristol,NULL,BS8 1SR,51.4581736,-2.6057142
109345,Bristol Waldorf School,England,,,,,,,Redland Hill House,Redland Hill,Bristol,NULL,BS6 6UX,51.4716474,-2.6113678
101849,BRIT School for Performing Arts and Technology,England,,,,,,,60 The Crescent,Selhurst,Croydon,NULL,CR0 2HN,51.3901915,-0.0920155
142784,Broadbeck Learning Centre,England,,,,,,,Brearcliffe Drive,Buttershaw,West Yorkshire,NULL,BD6 2LE,53.7621726,-1.7825975
126435,Broad Chalke CofE Primary School,England,,,,,,,Newtown,Broad Chalke,Salisbury,NULL,SP5 5DS,51.0273334,-1.9359986
113349,Broadhembury Church of England Primary School,England,,,,,,,Broadhembury,NULL,Honiton,NULL,EX14 3NF,50.8346536,-3.2771903
100081,Broadhurst School,England,,,,,,,19 Greencroft Gardens,NULL,London,NULL,NW6 3LP,51.5446195,-0.181352
135252,Broadlands Hall,England,,,,,,,NULL,Little Wratting,Haverhill,NULL,CB9 7UA,52.095934,0.461856
103288,Broadmeadow Infant School,England,,,,,,,Monyhull Hall Road,Kings Norton,Birmingham,NULL,B30 3QJ,52.4087291,-1.9149229
103286,Broadmeadow Junior School,England,,,,,,,Monyhull Hall Road,Kings Norton,Birmingham,NULL,B30 3QJ,52.4080162,-1.9158519
142225,Broadstones School,England,,,,,,,Room 413,Broadstone Mill,Reddish,NULL,SK4 5HS,53.4343214,-2.1652154
109057,Broadway Infant School,England,,,,,,,Broadway,Yate,Bristol,NULL,BS37 7AD,51.5419203,-2.4058296
131960,Broadwood School,England,,,,,,,252 Moorend Road,Pellon,Halifax,NULL,HX2 0RU,53.7333921,-1.9034599
130690,Brockenhurst College,England,,,,,,,Lyndhurst Road,NULL,Brockenhurst,NULL,SO42 7ZE,50.8215816,-1.5702305
110127,Brockhurst and Marlston House Schools,England,,,,,,,Marlston House,Hermitage,Thatcham,NULL,RG18 9UL,51.4435816,-1.2388682
116574,Brockwood Park School,England,,,,,,,Brockwood Park,NULL,Alresford,NULL,SO24 0LQ,51.0339098,-1.1094662
115675,Bromesberrow St Mary's Church of England (Aided) Primary School,England,,,,,,,Albright Lane,Bromesberrow,Ledbury,NULL,HR8 1RT,52.0045274,-2.3706972
101692,Bromley High School GDST,England,,,,,,,Blackbrook Lane,Bickley,Bromley,NULL,BR1 2TW,51.3946975,0.058592
117012,Bromsgrove School,England,,,,,,,Worcester Road,NULL,Bromsgrove,NULL,B61 7DU,52.3266851,-2.0621689
131059,Brondesbury College London,England,,,,,,,8 Brondesbury Park,NULL,London,NULL,NW6 7BT,51.5424199,-0.2125811
118967,Bronte School,England,,,,,,,7 Pelham Road,NULL,Gravesend,NULL,DA11 0HN,51.440247,0.36319
111202,Brook Acre Community Primary School,England,,,,,,,Hilden Road,Padgate,Warrington,NULL,WA2 0JP,53.4083251,-2.5690547
105028,Brookdale Primary School,England,,,,,,,Escolme Drive,NULL,WIRRAL,NULL,CH49 1SE,53.3780816,-3.1124324
120341,Brooke House College,England,,,,,,,12 Leicester Road,NULL,Market Harborough,NULL,LE16 7AU,52.4813805,-0.924239
135185,Brooke House Day School,England,,,,,,,Croft Road,Cosby,Leicester,NULL,LE9 1SE,52.5493149,-1.1982304
120340,Brooke Priory School,England,,,,,,,Station Approach,NULL,Oakham,NULL,LE15 6QW,52.6732151,-0.7328685
124893,Brookes UK,England,,,,,,,Flempton Road,Risby,Bury St Edmunds,NULL,IP28 6QJ,52.2815065,0.6448958
110186,Brookfields Special School,England,,,,,,,Sage Road,Tilehurst,Reading,NULL,RG31 6SW,51.4731414,-1.0467494
131751,Brookland School,England,,,,,,,13 Newhey Road,Milnrow,Royton,NULL,OL16 3NP,53.6078032,-2.1067771
130825,Brooklands College,England,,,,,,,Heath Road,NULL,Weybridge,NULL,KT13 8TT,51.3629873,-0.463563
125472,Brooklands School - Split Site,England,,,,,,,27 Wray Park Road,NULL,REIGATE,NULL,RH2 0DF,51.2443017,-0.1965563
132210,Brooksward School,England,,,,,,,Tower Drive,Neath Hill,Milton Keynes,NULL,MK14 6JZ,52.0619046,-0.7492702
149064,Brookthorpe Hall School,England,,,,,,,Stroud Road,NULL,Gloucester,NULL,GL4 0UN,51.8070674,-2.2356402
136069,Brook View School,England,,,,,,,Ward Green Lane,Ribchester,Preston,NULL,PR3 3YB,53.829564,-2.5618699
144774,Brookways School,England,,,,,,,660 London Road,North Cheam,NULL,NULL,SM3 9BZ,51.3750136,-0.2232439
102938,Broomfield House School,England,,,,,,,Broomfield Road,Kew Gardens,Richmond,NULL,TW9 3HS,51.4787316,-0.2881911
121359,Broomfield School,England,,,,,,,Broomfield Avenue,NULL,Northallerton,NULL,DL7 8RG,54.3299158,-1.4359635
101089,Broomwood Prep - Boys,England,,,,,,,26 Bolingbroke Grove,NULL,London,NULL,SW11 6EL,51.4518412,-0.1654466
101074,Broomwood Pre-Prep & Broomwood Prep-Girls,England,,,,,,,68-74 Nightingale Lane,NULL,London,NULL,SW12 8NR,51.4502791,-0.1586074
136153,Broughton Manor Preparatory School,England,,,,,,,Newport Road,Broughton,Milton Keynes,NULL,MK10 9AA,52.0482105,-0.6886284
131395,Browns School,England,,,,,,,Hawstead Lane,Chelsfield,Orpington,NULL,BR6 7PH,51.3578732,0.1372972
123320,Bruern Abbey School,England,,,,,,,Chesterton Manor,Chesterton,Bicester,NULL,OX26 1UY,51.8862794,-1.1835261
144514,Brunel College,England,,,,,,,Brunel House,Mitchell Road,NULL,NULL,SP2 7PY,51.0680464,-1.8171334
144014,Brune Park Community School,England,,,,,,,Military Road,NULL,Gosport,NULL,PO12 3BU,50.810285,-1.1573746
113910,Bryanston School,England,,,,,,,Bryanston,NULL,Blandford Forum,NULL,DT11 0PX,50.865716,-2.1854763
118979,Bryony School,England,,,,,,,157 Marshall Road,Rainham,Rainham,NULL,ME8 0AJ,51.3580641,0.5862595
101568,Buckingham Preparatory School,England,,,,,,,458 Rayners Lane,NULL,Pinner,NULL,HA5 5DT,51.5792013,-0.3712556
130607,Buckinghamshire College Group,England,,,,,,,Oxford Road,NULL,Aylesbury,NULL,HP21 8PD,51.814073,-0.823341
141740,Buckland St Mary Church of England Primary School,England,,,,,,,Buckland St Mary,NULL,Chard,NULL,TA20 3SJ,50.9154247,-3.0393686
119910,Buckminster Primary School,England,,,,,,,School Lane,NULL,Grantham,NULL,NG33 5RZ,52.7917598,-0.6899614
114656,Buckswood School,England,,,,,,,Broomham Hall,Rye Road,East Sussex,NULL,TN35 4LT,50.8796861,0.614168
143059,Buile Hill Academy,England,,,,,,,Eccles Old Road,NULL,Salford,NULL,M6 8RD,53.4939675,-2.3028521
126134,Burgess Hill Girls,England,,,,,,,Keymer Road,NULL,Burgess Hill,NULL,RH15 0EG,50.952074,-0.124339
131675,Burlington House School,England,,,,,,,Bishops Avenue,Fulham,London,NULL,SW6 6EG,51.4727839,-0.2149007
150733,Burlington House School Tooting,England,,,,,,,3 Garrads Road,Lambeth,London,NULL,SW16 1JZ,51.4334722,-0.135828
123682,Burnham-On-Sea Community Infant School,England,,,,,,,Winchester Road,NULL,Burnham-on-Sea,NULL,TA8 1JD,51.2415054,-2.9861688
130735,Burnley College,England,,,,,,,Princess Way,NULL,Burnley,NULL,BB12 0AN,53.793803,-2.2471572
124221,Burnwood Community Primary School,England,,,,,,,Chell Heath Road,Chell Heath,Stoke-on-Trent,NULL,ST6 7LP,53.066218,-2.1812822
110783,Burrough Green CofE Primary School,England,,,,,,,Bradley Road,NULL,Newmarket,NULL,CB8 9NH,52.1742787,0.392909
139843,Burrowmoor Primary School,England,,,,,,,Burrowmoor Road,NULL,March,NULL,PE15 9RP,52.546921,0.087413
148736,Burstow Park School,England,,,,,,,Antlands Lane,Burstow,NULL,NULL,RH6 9TF,51.1455722,-0.1258656
125292,Burstow Primary School,England,,,,,,,Wheelers Lane,Smallfield,Horley,NULL,RH6 9PT,51.1722922,-0.1168994
130809,Burton and South Derbyshire College,England,,,,,,,Lichfield Street,NULL,Burton-on-Trent,NULL,DE14 3RL,52.8001437,-1.6304478
139235,Burton Hathow Preparatory School,England,,,,,,,Saxilby Road,Odder,Lincoln,NULL,LN1 2BB,53.2650569,-0.6243871
121385,Burton Salmon Community Primary School,England,,,,,,,Burton Salmon,Ledgate Lane,Leeds,NULL,LS25 5JY,53.7413,-1.2573767
117730,Burton-upon-Stather Primary School,England,,,,,,,Flixborough Road,Burton-upon-Stather,Scunthorpe,NULL,DN15 9HB,53.6443643,-0.6814473
130498,Bury College,England,,,,,,,Market Street,NULL,Bury,NULL,BL9 0BG,53.5879096,-2.2952042
105373,Bury Grammar Schools,England,,,,,,,Tenterden Street,NULL,Bury,NULL,BL9 0HN,53.5915318,-2.3051013
134807,Bury Park Educational Institute (Al - Hikmah Secondary School),England,,,,,,,82 - 86 Dunstable Road,NULL,LUTON,NULL,LU1 1EH,51.8842907,-0.4267878
150759,Bushbury School,England,,,,,,,Hellier Road,Bushbury,Wolverhampton,NULL,WV10 8ED,52.6230801,-2.1141298
120040,Buswells Lodge Primary School,England,,,,,,,Beauville Drive,Beaumont Leys,Leicester,NULL,LE4 0PT,52.6607703,-1.1674586
100368,Bute House Preparatory School for Girls,England,,,,,,,Luxembourg Gardens,London,NULL,NULL,W6 7EA,51.4958763,-0.2213926
138564,Buttercup Primary School,England,,,,,,,181 Cannon Street Road,NULL,London,NULL,E1 2LX,51.5142567,-0.0619953
105297,Butterstile Primary School,England,,,,,,,School Grove,Prestwich,Manchester,NULL,M25 9RJ,53.5215532,-2.2869318
115276,Buttsbury Infant School,England,,,,,,,Perry Street,NULL,Billericay,NULL,CM12 0NX,51.6384955,0.4221805
101569,Buxlow Preparatory School,England,,,,,,,5/6 Castleton Gardens,NULL,Wembley,NULL,HA9 7QJ,51.561687,-0.2961265
145184,Buzz Learning Independent Specialist School,England,,,,,,,8 Esther Court,Wansbeck Business Park,Northumberland,NULL,NE63 8AP,55.1856338,-1.581548
101497,Byron Court Primary School,England,,,,,,,Spencer Road,NULL,Wembley,NULL,HA0 3SF,51.56926,-0.3112171
131008,Cadishead Primary School,England,,,,,,,Allotment Road,Cadishead,Manchester,NULL,M44 5JD,53.4306066,-2.4376894
150305,Caelum House School,England,,,,,,,"Kent House, Rutland Gardens",Knightsbridge,London,NULL,SW7 1BX,51.5017704,-0.1667558
148796,Cairn Education CIC,England,,,,,,,The Tavern,63 Main Street,Cumbria,NULL,LA8 9LN,54.376514,-2.8155809
119027,Caldecott Foundation School,England,,,,,,,Station Road,Smeeth,Ashford,NULL,TN25 6PW,51.116441,0.9552207
130535,Calderdale College,England,,,,,,,Francis Street,NULL,Halifax,NULL,HX1 3UZ,53.7195739,-1.8745164
147548,Calder Lodge School,England,,,,,,,Oakenclough,Preston,NULL,NULL,PR3 1UL,53.9219615,-2.704964
105779,Caldershaw Primary School,England,,,,,,,Edenfield Road,NULL,Rochdale,NULL,OL12 7QL,53.6232599,-2.1947836
110540,Caldicott School,England,,,,,,,Crown Lane,Farnham Royal,Slough,NULL,SL2 3SL,51.5504577,-0.6210521
111214,Callands Community Primary School,England,,,,,,,Callands Road,Callands,Warrington,NULL,WA5 9RJ,53.4121524,-2.6168849
115486,Calton Primary School,England,,,,,,,Calton Road,NULL,Gloucester,NULL,GL1 5ET,51.8464907,-2.2452601
105606,Camberwell Park Specialist Support School,England,,,,,,,Brookside Road,Moston,Manchester,NULL,M40 9GJ,53.5171271,-2.1900553
133429,Cambian Beverley School,England,,,,,,,Units 19-20 Priory Road Industrial Estate,NULL,Beverley,NULL,HU17 0EW,53.8407841,-0.4189345
142322,Cambian Bletchley Park School,England,,,,,,,Whaddon Way,Bletchley,Milton Keynes,NULL,MK3 7EB,51.9976639,-0.7552888
140205,Cambian Chesham House School,England,,,,,,,Chesham House,Thrush Drive,NULL,NULL,BL9 6JD,53.6011346,-2.2762124
135803,Cambian Devon School,England,,,,,,,Intek House,52 Borough Road,Paignton,NULL,TQ4 7DQ,50.4258311,-3.5914931
149442,Cambian Dunbroch School,England,,,,,,,Fordham Road,NULL,Newmarket,NULL,CB8 7LF,52.2740716,0.3934768
149357,Cambian Great Dunmow School,England,,,,,,,"Unit 13, Flitch Industrial Estate",Chelmsford Road,Essex,NULL,CM6 1XJ,51.8673335,0.3665472
135424,Cambian Hartlepool School,England,,,,,,,"Unit E, Sovereign Way",Sovereign Park,Hartlepool,NULL,TS25 1NN,54.6616609,-1.2072633
117048,Cambian Hereford School,England,,,,,,,Coningsby Road,Leominster,NULL,NULL,HR6 8LL,52.2242526,-2.7390437
141879,Cambian Home Tree School,England,,,,,,,172 March Road,Friday Bridge,Wisbech,NULL,PE14 0LP,52.6160889,0.1464757
117030,Cambian New Elizabethan School,England,,,,,,,Quarry Bank,Hartlebury,NULL,NULL,DY11 7TE,52.3331189,-2.2351719
131802,Cambian Northampton School,England,,,,,,,67a Queens Park Parade,Kingsthorpe,NULL,NULL,NN2 6LR,52.2575038,-0.9002188
122136,Cambian Potterspury Lodge School,England,,,,,,,Potterspury Lodge,NULL,NULL,NULL,NN12 7LL,52.0964736,-0.9126715
141864,Cambian Red Rose School,England,,,,,,,Meadow Lane,Bamber Bridge,NULL,NULL,PR5 8LN,53.7088577,-2.643275
134660,Cambian Scarborough School,England,,,,,,,"Unit 11, Plaxton Park",Cayton Low Road,Scarborough,NULL,YO11 3BQ,54.2380736,-0.4036796
131455,Cambian Somerset School,England,,,,,,,Creech Court,Mill Lane,Taunton,NULL,TA3 5PX,51.0231891,-3.0447245
142911,Cambian Spring Hill,England,,,,,,,Palace Road,NULL,Ripon,NULL,HG4 3HN,54.1527621,-1.5312539
135557,Cambian Tyldesley School,England,,,,,,,Shuttle Street,Tyldesley,Manchester,NULL,M29 8BS,53.515099,-2.465979
135990,Cambian Walnut Tree Lodge School,England,,,,,,,Renhold Road,NULL,Bedford,NULL,MK44 2PT,52.1749154,-0.4064571
134781,Cambian Whinfell School,England,,,,,,,110 Windermere Road,NULL,Kendal,NULL,LA9 5EZ,54.3350027,-2.7582983
134179,Cambian Wisbech School,England,,,,,,,Old Sessions House,32 Somers Road,Wisbech,NULL,PE13 1JF,52.6645752,0.1565066
110935,Cambridge Arts and Sciences (CATS and CSVPA),England,,,,,,,1 High Street,Chesterton,Cambridge,NULL,CB4 1NQ,52.217158,0.1359588
146301,Cambridge International School,England,,,,,,,Cherry Hinton Hall,Cherry Hinton Road,NULL,NULL,CB1 8DW,52.1863976,0.1640457
130610,Cambridge Regional College,England,,,,,,,Science Park Campus,Kings Hedges Road,Cambridge,NULL,CB4 2QT,52.236053,0.1365431
142330,Cambridge Street School,England,,,,,,,Cambridge Street,NULL,Batley,NULL,WF17 5QW,53.7126861,-1.6346164
133528,Cambridge Tutors College,England,,,,,,,Water Tower Hill,NULL,Croydon,NULL,CR0 5SX,51.3672631,-0.0907782
100538,Cameron Vale School,England,,,,,,,4 The Vale,Chelsea,London,NULL,SW3 6AH,51.485566,-0.1752762
146999,Camp Hill Education,England,,,,,,,The Bordesley Centre,Stratford Road,Birmingham,NULL,B11 1AR,52.4680132,-1.8778913
105305,Cams Lane Primary School,England,,,,,,,Cams Lane,Radcliffe,Manchester,NULL,M26 3SW,53.5616941,-2.341049
102620,Canbury School,England,,,,,,,Kingston Hill,Kingston upon Thames,Kingston upon Thames,NULL,KT2 7LN,51.4239443,-0.2758177
115091,Canewdon Endowed Church of England Voluntary Controlled Primary School,England,,,,,,,High Street,Canewdon,Rochford,NULL,SS4 3QA,51.6170152,0.74524
113922,Canford School,England,,,,,,,Canford Magna,NULL,Wimborne,NULL,BH21 3AD,50.7898127,-1.9538411
122413,Cantrell Primary and Nursery School,England,,,,,,,Cantrell Road,Bulwell,Nottingham,NULL,NG6 9HJ,53.0013846,-1.1887142
130438,Capel Manor College,England,,,,,,,Bullsmoor Lane,NULL,Enfield,NULL,EN1 4RQ,51.6792351,-0.0552097
130421,Capital City College,England,,,,,,,211 Gray's Inn Road,NULL,London,NULL,WC1X 8RA,51.5268481,-0.1185277
149027,"Cardiff Sixth Form College, Cambridge",England,,,,,,,89 Regent Street,Cambridge,NULL,NULL,CB1 2AW,52.2001143,0.1268383
130745,Cardinal Newman College,England,,,,,,,Lark Hill Road,NULL,Preston,NULL,PR1 4HD,53.7565001,-2.6899194
100285,Cardinal Pole Catholic School,England,,,,,,,205 Morning Lane,Hackney,London,NULL,E9 6LG,51.5464273,-0.0462212
150803,Cardrew Court School,England,,,,,,,Cardrew Industrial Estate,Cardrew Way,Redruth,NULL,TR15 1SS,50.2440784,-5.2188807
151568,Car Dyke School,England,,,,,,,60 Main Road,NULL,Dowsby,NULL,PE10 0TL,52.8488747,-0.3481279
139722,Carew Academy,England,,,,,,,33 Headley Avenue,NULL,Wallington,NULL,SM6 8NQ,51.3645974,-0.1228738
139997,Carfax College,England,,,,,,,39-42 Hythe Bridge Street,NULL,Oxford,NULL,OX1 2EP,51.7533663,-1.2662313
136012,Carisbrooke College,England,,,,,,,Mountbatten Drive,NULL,Newport,NULL,PO30 5QU,50.6967535,-1.3133428
104723,Carleton House Preparatory School,England,,,,,,,145 Menlove Avenue,Liverpool,NULL,NULL,L18 3EE,53.3854081,-2.8948224
136627,Carlton le Willows Academy,England,,,,,,,Wood Lane,Gedling,Nottingham,NULL,NG4 4AA,52.9743218,-1.0687711
130489,Carmel College,England,,,,,,,Prescot Road,NULL,St Helens,NULL,WA10 3AG,53.4423763,-2.7714741
115750,Carrant Brook Junior School,England,,,,,,,Hardwick Bank Road,Northway,Tewkesbury,NULL,GL20 8RP,52.0073697,-2.1132763
122139,Carrdus School,England,,,,,,,Overthorpe Hall,Blacklocks Hill,NULL,NULL,OX17 2BS,52.07211,-1.299155
119744,Carr Hill High School,England,,,,,,,Royal Avenue,Kirkham,Preston,NULL,PR4 2ST,53.7795218,-2.8674126
123015,Carterton Primary School,England,,,,,,,Burford Road,NULL,Carterton,NULL,OX18 3AD,51.7626533,-1.5948592
112445,"Casterton, Sedbergh Preparatory School",England,,,,,,,Casterton,Kirkby Lonsdale,NULL,NULL,LA6 2SG,54.2119257,-2.575494
123640,Castle Cary Community Primary School,England,,,,,,,Park Street,NULL,Castle Cary,NULL,BA7 7EH,51.086643,-2.5156324
113931,Castle Court School,England,,,,,,,Knoll Lane,Corfe Mullen,NULL,NULL,BH21 3RF,50.7750132,-2.0347138
150377,Castlefell School,England,,,,,,,Silverhill Brake,Rudgeway,Bristol,NULL,BS35 3NS,51.5737256,-2.5466178
108229,Castleford Townville Infants' School,England,,,,,,,Poplar Avenue,Townville,Castleford,NULL,WF10 3QJ,53.7205592,-1.3171648
149670,Castle Garden School,England,,,,,,,Pewely Hill,NULL,Guildford,NULL,GU1 3SQ,51.2343728,-0.5702605
146078,Castle Hill School,England,,,,,,,2 Castle Hill,Nantwich Road,Newcastle Under Lyme,NULL,ST7 8DH,53.0559514,-2.3018465
109435,Castle Newnham School,England,,,,,,,Goldington Road,NULL,Bedford,NULL,MK40 3EP,52.1398563,-0.4539122
109661,Castle Newnham School,England,,,,,,,Polhill Avenue,NULL,Bedford,NULL,MK41 9DT,52.1459829,-0.4527374
147170,Castles Education,England,,,,,,,12 Acland Street,NULL,Gainsborough,NULL,DN21 2SU,53.4031103,-0.7802492
114043,Castleside Primary School,England,,,,,,,Moorland Crescent,Castleside,Consett,NULL,DH8 9RG,54.8335037,-1.877613
136740,Catch22 Include London,England,,,,,,,191 Freston Road,London,NULL,NULL,W10 6TH,51.5133681,-0.2200338
114023,Catchgate Primary School,England,,,,,,,Blackett Street,NULL,Stanley,NULL,DH9 8LX,54.8616516,-1.7478343
125444,Caterham Prep,England,,,,,,,Harestone Valley Road,Caterham,Caterham,NULL,CR3 6YB,51.2704709,-0.0847129
125427,Caterham School,England,,,,,,,Harestone Valley Road,NULL,Caterham,NULL,CR3 6YA,51.2725408,-0.0869093
121103,Catfield Voluntary Controlled CofE Primary School,England,,,,,,,School Lane,Catfield,Great Yarmouth,NULL,NR29 5DA,52.7100728,1.5184861
116658,Catshill First School,England,,,,,,,Gibb Lane,Catshill,Bromsgrove,NULL,B61 0JP,52.3626026,-2.0573507
116958,Catshill Middle School,England,,,,,,,Meadow Road,Catshill,Bromsgrove,NULL,B61 0JW,52.3617304,-2.0614039
124693,Cavendish Church of England Primary School,England,,,,,,,The Green,Cavendish,Sudbury,NULL,CO10 8BA,52.0875078,0.6316413
131237,Cavendish School,England,,,,,,,Lady Gomm House,58 Hawkstone Road,London,NULL,SE16 2PA,51.4915725,-0.0512803
148199,Cavendish View School,England,,,,,,,99,Cavendish Drive,NULL,NULL,L9 1NB,53.4518994,-2.9570258
110177,Caversham Preparatory School,England,,,,,,,16 Peppard Road,Caversham,Reading,NULL,RG4 8JZ,51.4729485,-0.9682504
112456,Cedar House School,England,,,,,,,NULL,Low Bentham,Via Lancaster,NULL,LA2 7DD,54.117652,-2.5434643
131379,Cedar Lodge School,England,,,,,,,c/o Hexagon Care Services,Unit 1 Tustin Court,Preston,NULL,PR2 2YQ,53.7605705,-2.72846
126149,Central Education Ltd,England,,,,,,,Yew Tree Farm,Nash Lane,Haywards Heath,NULL,RH17 7NJ,50.9962529,-0.0332433
140604,Central Learning Partnership,England,,,,,,,Heath Park,Prestwood Road,Wolverhampton,NULL,WV11 1RD,52.6013057,-2.0996463
124890,Centre Academy East Anglia,England,,,,,,,Church Road,Brettenham,Ipswich,NULL,IP7 7QR,52.15156,0.874243
101175,Centre Academy London,England,,,,,,,92 St John's Hill,Battersea,London,NULL,SW11 1SH,51.4610641,-0.1749199
149150,CEWE School,England,,,,,,,St Catherine's Vicarage,Catherine Terrace,Greater Manchester,NULL,WN1 3JW,53.5460603,-2.6163823
126517,Chafyn Grove School,England,,,,,,,Bourne Avenue,NULL,Salisbury,NULL,SP1 1LR,51.0745072,-1.7842182
111498,Chaigeley School,England,,,,,,,Lymm Road,Thelwall,Warrington,NULL,WA4 2TE,53.3841511,-2.5206286
114682,Chailey Heritage School,England,,,,,,,Haywards Heath Road,North Chailey,Lewes,NULL,BN8 4EF,50.9717703,-0.0300811
131644,Chaloner Primary School,England,,,,,,,Wilton Lane,NULL,Guisborough,NULL,TS14 6JA,54.540916,-1.0555396
143407,Chances Educational Support Services,England,,,,,,,Red Rock,Sandy Lane,Dawlish,NULL,EX7 0AF,50.5869402,-3.4612323
151219,Chances Mentoring,England,,,,,,,Unit 3 Whitegate Business Centre,Jardine Way,Oldham,NULL,OL9 9JT,53.5325157,-2.1541684
131981,Chandlings Prep,England,,,,,,,Bagley Wood Road,Boars Hill,Oxford,NULL,OX1 5ND,51.7080408,-1.2682713
149213,Changing Lives,England,,,,,,,Isherwood Rd,Nursery farm,Manchester,NULL,M31 4BH,53.4249163,-2.3752006
102162,Channing School,England,,,,,,,The Bank,Highgate,Highgate,NULL,N6 5HF,51.5701067,-0.1440752
114427,Chantry Community Primary School,England,,,,,,,Barrack Road,NULL,Bexhill-on-Sea,NULL,TN40 2AT,50.8474919,0.4733614
149593,Chapel Bridge School,England,,,,,,,99 Craigie Drive,NULL,Plymouth,NULL,PL1 3JL,50.3720205,-4.155759
104779,Chapel End Primary School,England,,,,,,,Carr Mill Road,Billinge,Wigan,NULL,WN5 7TX,53.4924871,-2.7082526
121556,Chapel Haddlesey Church of England Voluntary Controlled Primary School,England,,,,,,,Millfield Road,Chapel Haddlesey,Selby,NULL,YO8 8QF,53.7295494,-1.1229613
126396,Chapmanslade Church of England Voluntary Aided Primary School,England,,,,,,,High Street,Chapmanslade,Westbury,NULL,BA13 4AN,51.229241,-2.2507439
115073,Chappel Church of England Controlled Primary School,England,,,,,,,The Street,Chappel,Colchester,NULL,CO6 2DD,51.9013107,0.7474981
123927,Chard School,England,,,,,,,Monmouth House,Fore Street,Chard,NULL,TA20 1QA,50.8734447,-2.9612151
116659,Charford First School,England,,,,,,,Charford Road,Charford,Bromsgrove,NULL,B60 3NH,52.3219589,-2.0609509
117635,Charlotte House Preparatory School,England,,,,,,,88 The Drive,NULL,Rickmansworth,NULL,WD3 4DU,51.648115,-0.4809902
116567,CHARLTON HOUSE SCHOOL LIMITED,England,,,,,,,57 MIDANBURY LANE,Bitterne Park,Hampshire,NULL,SO18 4DJ,50.9199395,-1.3689354
125340,Charterhouse,England,,,,,,,NULL,NULL,Godalming,NULL,GU7 2DX,51.1966247,-0.6219691
100463,Charterhouse Square School,England,,,,,,,33-40 Charterhouse Square,NULL,London,NULL,EC1M 6EA,51.5202963,-0.0993202
126292,Charter Primary School,England,,,,,,,Wood Lane,NULL,Chippenham,NULL,SN15 3EA,51.4520225,-2.1091551
118977,Chartfield School,England,,,,,,,45 Minster Road,NULL,Westgate-on-Sea,NULL,CT8 8DA,51.3773895,1.3402563
124486,Chase Grammar School,England,,,,,,,Convent Close,NULL,Cannock,NULL,WS11 0UR,52.6839032,-2.0315339
131695,Chase Grammar School International Study Centre,England,,,,,,,Convent Close,NULL,Cannock,NULL,WS11 0UR,52.6839032,-2.0315339
140273,Chase House School,England,,,,,,,C/O Cambian Education,5th Floor Metropolitan House,Potters Bar,NULL,EN6 1AG,51.6968182,-0.1915463
117202,Chaulden Infants' and Nursery,England,,,,,,,School Row,Chaulden,Hemel Hempstead,NULL,HP1 2JU,51.7505614,-0.5019321
150433,Chaulden Infants' and Nursery,England,,,,,,,School Row,Chaulden,Hemel Hempstead,NULL,HP1 2JU,51.7505614,-0.5019321
139550,Chaulden Junior School,England,,,,,,,School Row,Chaulden,Hemel Hempstead,NULL,HP1 2JU,51.7506513,-0.5000731
150614,Chaulden Junior School,England,,,,,,,School Row,Chaulden,Hemel Hempstead,NULL,HP1 2JU,51.7506513,-0.5000731
106157,Cheadle Hulme School,England,,,,,,,Claremont Road,Cheadle Hulme,Cheadle,NULL,SK8 6EF,53.3693892,-2.1933654
116520,Cheam School,England,,,,,,,Headley,Thatcham,Thatcham,NULL,RG19 8LD,51.3531092,-1.2575118
130679,Chelmsford College,England,,,,,,,Moulsham Street,NULL,Chelmsford,NULL,CM2 0JQ,51.7252531,0.4666008
142537,Chelmsford Hospital School,England,,,,,,,Stump Lane,Springfield Green,Chelmsford,NULL,CM1 7SJ,51.7436018,0.4884561
131662,Chelsea Hall School,England,,,,,,,St Andrew's Church Hall,Waynflete Street,London,NULL,SW18 3QG,51.4405206,-0.1852586
115795,Cheltenham College,England,,,,,,,Bath Road,NULL,Cheltenham,NULL,GL53 7LD,51.8917847,-2.0764101
115798,Cheltenham Ladies' College,England,,,,,,,Bayshill Road,NULL,Cheltenham,NULL,GL50 3EP,51.897779,-2.081343
110216,Chenies School,England,,,,,,,Chenies,NULL,Rickmansworth,NULL,WD3 6ER,51.6743358,-0.5315977
136057,Chepstow House School,England,,,,,,,108a Lancaster Road,Notting Hill,London,NULL,W11 1QS,51.5173183,-0.2081381
109114,Cherry Garden Primary School,England,,,,,,,Cherry Garden Lane,Bitton,Bristol,NULL,BS30 6JH,51.4348311,-2.4758332
145064,Cherry Tree,England,,,,,,,29 All Saints Avenue,Margate,NULL,NULL,CT9 5QN,51.3837818,1.3690799
149910,Cherry Tree School,England,,,,,,,72 Queen Mary Street,Palfrey,Walsall,NULL,WS1 4AB,52.5702426,-1.9853828
143042,Cherwell College Oxford,England,,,,,,,St George's Mansion,1-3 George Street,Oxford,NULL,OX1 2AR,51.7538298,-1.2591052
110552,Chesham Preparatory School,England,,,,,,,Two Dells Lane,Orchard Leigh,Chesham,NULL,HP5 3QF,51.7225025,-0.5786745
105293,Chesham Primary School,England,,,,,,,Talbot Grove,NULL,Bury,NULL,BL9 6PH,53.608538,-2.287134
130619,Cheshire College - South & West,England,,,,,,,Dane Bank Avenue,NULL,Crewe,NULL,CW2 8AB,53.0890025,-2.4550059
151619,Cheshire Hall School,England,,,,,,,Congleton Road,Cheshire,Sandbach,NULL,CW11 4TF,53.153127,-2.3319476
124189,Cheslyn Hay Primary School,England,,,,,,,Saredon Road,Cheslyn Hay,Walsall,NULL,WS6 7JQ,52.6619882,-2.0438409
130638,Chesterfield College,England,,,,,,,Infirmary Road,NULL,Chesterfield,NULL,S41 7NG,53.2397828,-1.4246128
123357,Cheswardine Primary and Nursery School,England,,,,,,,Glebe Close,Cheswardine,Market Drayton,NULL,TF9 2RU,52.8643836,-2.4166812
105588,Chetham's School of Music,England,,,,,,,Long Millgate,Manchester,NULL,NULL,M3 1SB,53.4862982,-2.2432216
130843,Chichester College Group,England,,,,,,,Westgate Fields,NULL,Chichester,NULL,PO19 1SB,50.8350897,-0.788712
133043,Chichester High Schools Sixth Form,England,,,,,,,Kingsham Road,NULL,Chichester,NULL,PO19 8AE,50.8297732,-0.77608
115392,Chigwell School,England,,,,,,,High Road,NULL,Chigwell,NULL,IG7 6QF,51.6267897,0.0817822
118155,Chillerton and Rookley Primary School,England,,,,,,,School Road,Godshill,Ventnor,NULL,PO38 3HJ,50.6557554,-1.3068886
149220,Chilton Bridge School,England,,,,,,,Chilton Bridge School,Chilton Cantelo,NULL,NULL,BA22 8BE,50.9971951,-2.6147565
131064,Chilworth House School,England,,,,,,,Thame Road,NULL,Oxford,NULL,OX33 1JP,51.7380714,-1.0841883
137334,Chilworth House Upper School,England,,,,,,,Grooms Farm,Thame Road,Oxfordshire,NULL,OX33 1JP,51.7380714,-1.0841883
125394,Chinthurst School,England,,,,,,,52 Tadworth Street,Tadworth,NULL,NULL,KT20 5QZ,51.2881085,-0.2354552
123287,Christ Church Cathedral School,England,,,,,,,3 Brewer Street,NULL,Oxford,NULL,OX1 1QW,51.7496675,-1.2577532
121590,Christ Church Church of England Voluntary Controlled Primary School,England,,,,,,,Craven Street,NULL,Skipton,NULL,BD23 2AP,53.9576593,-2.0208219
123471,Christ Church CofE Primary School,England,,,,,,,Sheinton Road,Cressage,Shrewsbury,NULL,SY5 6DH,52.6335054,-2.6000781
104220,Christ Church CofE Primary School,England,,,,,,,Harden Road,Leamore,WALSALL,NULL,WS3 1EN,52.607708,-1.9919951
101035,Christ Church CofE Primary School,England,,,,,,,Batten Street,Battersea,London,NULL,SW11 2TH,51.4674496,-0.167194
113734,Christchurch Infant School,England,,,,,,,Addiscombe Road,NULL,Christchurch,NULL,BH23 2AE,50.7395613,-1.7853878
124034,Christ Church Primary School,England,,,,,,,Dale Street,NULL,Burton-on-Trent,NULL,DE14 3TE,52.8016821,-1.6393236
104730,Christian Fellowship School,England,,,,,,,Overbury Street,Edge Hill,Liverpool,NULL,L7 3HL,53.4027959,-2.9538555
126107,Christ's Hospital,England,,,,,,,NULL,NULL,Horsham,NULL,RH13 0LJ,51.0443572,-0.3625524
119781,Christ The King Catholic High School,England,,,,,,,Lawrence Avenue,Frenchwood,Preston,NULL,PR1 4PR,53.750886,-2.6880809
130416,Christ The King Sixth Form College,England,,,,,,,Belmont Grove,Lewisham,London,NULL,SE13 5GE,51.4642654,-0.0028036
116579,Churcher's College,England,,,,,,,Ramshill,NULL,Petersfield,NULL,GU31 4AS,51.0097656,-0.9280056
130388,"Churchfields, the Village School",England,,,,,,,Bradford Road,Atworth,Melksham,NULL,SN12 8HY,51.3914824,-2.202281
139940,Churchill Gardens Primary Academy,England,,,,,,,Ranelagh Road,Pimlico,London,NULL,SW1V 3EU,51.4875388,-0.1391779
116792,Church Lench CofE First School,England,,,,,,,Main Street,Church Lench,Evesham,NULL,WR11 4UE,52.1593645,-1.9660453
107820,Churwell Primary School,England,,,,,,,Westwood Side,Churwell Morley,Leeds,NULL,LS27 9HR,53.7585625,-1.5962805
130686,Cirencester College,England,,,,,,,Fosse Way Campus,Stroud Road,Cirencester,NULL,GL7 1XA,51.712203,-1.9849616
130649,City College Plymouth,England,,,,,,,Kings Road,Devonport,Plymouth,NULL,PL1 5QG,50.3740934,-4.1664854
149158,City Junior School,England,,,,,,,CITY JUNIOR SCHOOL,4 GRAY'S INN PLACE,NULL,NULL,WC1R 5EY,51.5189974,-0.1142219
130401,City Lit,England,,,,,,,Keeley Street,Covent Garden,London,NULL,WC2B 4BA,51.5149388,-0.1200873
131094,City of Bristol College,England,,,,,,,St George's Road,Anchor Road,Bristol,NULL,BS1 5UA,51.4509561,-2.6055192
125349,City of London Freemen's School,England,,,,,,,Ashtead Park,Park Lane,Surrey,NULL,KT21 1ET,51.3077983,-0.2899065
100003,City of London School,England,,,,,,,107 Queen Victoria Street,NULL,London,NULL,EC4V 3AL,51.5111487,-0.0988461
100001,City of London School for Girls,England,,,,,,,St Giles' Terrace,Barbican,London,NULL,EC2Y 8BB,51.5191253,-0.0943258
130697,City of Portsmouth College,England,,,,,,,Tudor Crescent,Cosham,Portsmouth,NULL,PO6 2SA,50.8366535,-1.0621083
145231,City of Rochester School,England,,,,,,,Bradbury House,View Road,Rochester,NULL,ME3 8UJ,51.4349744,0.5034279
131347,City of Sunderland College,England,,,,,,,Bede Centre,Durham Road,Sunderland,NULL,SR3 4AH,54.8917816,-1.4082593
130484,City of Wolverhampton College,England,,,,,,,Paget Road,NULL,Wolverhampton,NULL,WV6 0DU,52.588912,-2.156463
137819,City United Academy (CUA),England,,,,,,,10 Edward Street,Birmingham,Birmingham,NULL,B1 2RX,52.481071,-1.9137712
110153,Claires Court Schools,England,,,,,,,1 College Avenue,NULL,Maidenhead,NULL,SL6 6AW,51.524388,-0.73217
138378,Clannad Education Centre,England,,,,,,,112 Chistlehurst Rd,Bromley,NULL,NULL,BR6 0DW,51.3823922,0.0947355
125334,Claremont Fan Court School,England,,,,,,,Claremont Drive,Esher,NULL,NULL,KT10 9LY,51.3577622,-0.3722911
114640,Claremont School,England,,,,,,,Baldslow,NULL,St Leonards-on-Sea,NULL,TN37 7PW,50.8984232,0.5554143
106001,Clarendon Cottage Preparatory School,England,,,,,,,Ivy Bank House,Half Edge Lane,Salford,NULL,M30 9BJ,53.4881696,-2.3359322
146804,Clarity Independent School,England,,,,,,,Bridge Farm Barn,Woodhill Road,Chelmsford,NULL,CM2 7SG,51.7155232,0.5343021
111614,Clavering Primary School,England,,,,,,,Clavering Road,NULL,Hartlepool,NULL,TS27 3PN,54.7104328,-1.2491212
113949,Clayesmore Preparatory School,England,,,,,,,NULL,Iwerne Minster,Blandford Forum,NULL,DT11 8PH,50.9318972,-2.1937507
113912,Clayesmore School,England,,,,,,,Iwerne Minster,NULL,Blandford Forum,NULL,DT11 8LL,50.9318972,-2.1937507
140046,Clay Hill School,England,,,,,,,Clay Hill,NULL,Lyndhurst,NULL,SO43 7DE,50.8584965,-1.5752512
151218,Claystone School,England,,,,,,,Half Moon Lane,Pepperstock,Luton,NULL,LU1 4LL,51.8505046,-0.4255466
135567,Cledford Primary School,England,,,,,,,George VI Avenue,NULL,Middlewich,NULL,CW10 0DD,53.1815536,-2.4432369
147298,Clervaux Garden School,England,,,,,,,Clow Beck Eco Centre,Croft On Tees,North Yorkshire,NULL,DL2 2TF,54.48445,-1.5725204
109339,Cleve House School,England,,,,,,,254 Wells Road,Knowle,Bristol,NULL,BS4 2PN,51.4368603,-2.5690032
105270,Clevelands Prep School,England,,,,,,,425 Chorley New Road,NULL,Bolton,NULL,BL1 5DH,53.579469,-2.477611
121529,Cliffe Voluntary Controlled Primary School,England,,,,,,,Main Street,Cliffe,Selby,NULL,YO8 6NN,53.7781503,-0.9973339
107150,Clifford All Saints CofE Primary School,England,,,,,,,Ringinglow Road,NULL,Sheffield,NULL,S11 7PQ,53.3571078,-1.5167428
109334,Clifton College,England,,,,,,,Guthrie Road,Clifton,Bristol,NULL,BS8 3EZ,51.4634258,-2.6191622
109335,Clifton High School,England,,,,,,,College Road,Bristol,NULL,NULL,BS8 3JD,51.4590192,-2.6188082
125470,Clifton Hill School,England,,,,,,,Chaldon Road,NULL,Caterham,NULL,CR3 5PN,51.2836664,-0.099201
101955,Clifton Lodge School,England,,,,,,,8 Mattock Lane,Ealing,NULL,NULL,W5 5BG,51.5115833,-0.3081099
144619,Clovelly House School,England,,,,,,,Clovelly,Merrylees Road,NULL,NULL,LE67 1AP,52.6508731,-1.305976
134641,Clyst Heath Nursery and Community Primary School,England,,,,,,,Royal Crescent,Clyst Heath,Exeter,NULL,EX2 7QT,50.7135113,-3.4785729
118991,Cobham Hall,England,,,,,,,Cobham Hall,Brewers Road,NULL,NULL,DA12 3BL,51.3943298,0.4186995
148324,Cobham Montessori School,England,,,,,,,The Hall,21-23 Spencer Road,Surrey,NULL,KT11 2AF,51.3275577,-0.4085761
151139,Cockburn Reach Academy,England,,,,,,,Northcote Crescent,NULL,Leeds,NULL,LS11 6NN,53.7822982,-1.5465783
124694,Cockfield Church of England Voluntary Controlled Primary School,England,,,,,,,Church Lane,Cockfield,Bury St Edmunds,NULL,IP30 0LA,52.158698,0.7824451
123470,Cockshutt CofE Primary School and Nursery,England,,,,,,,Cockshutt,NULL,Ellesmere,NULL,SY12 0JE,52.8578961,-2.8417589
122754,Coddington CofE Primary and Nursery School,England,,,,,,,Brownlows Hill,Coddington,Newark,NULL,NG24 2QA,53.0807029,-0.7587429
123283,Cokethorpe School,England,,,,,,,Cokethorpe Park,NULL,Witney,NULL,OX29 7PU,51.7533792,-1.4632433
130674,Colchester Institute,England,,,,,,,Sheepen Road,NULL,Colchester,NULL,CO3 3LL,51.8936359,0.8890973
115409,Colchester Prep & High School,England,,,,,,,Wellesley Road,NULL,Colchester,NULL,CO3 3HD,51.886816,0.891093
108375,Colegate Community Primary School,England,,,,,,,Colegate West,Leam Lane Estate,Gateshead,NULL,NE10 9AH,54.944338,-1.5552328
104070,Coleshill Heath School,England,,,,,,,Lime Grove,Chelmsley Wood,Birmingham,NULL,B37 7PY,52.4748964,-1.7381646
100202,Colfe's School,England,,,,,,,Horn Park Lane,Lee,London,NULL,SE12 8AW,51.4503091,0.0212304
100082,College Francais Bilingue De Londres,England,,,,,,,87 Holmes Road,NULL,London,NULL,NW5 3AX,51.5489365,-0.1455527
109336,Collegiate School,England,,,,,,,Stapleton,Bristol,NULL,NULL,BS16 1BJ,51.4803961,-2.5557896
100539,Collingham,England,,,,,,,23 Collingham Gardens,NULL,London,NULL,SW5 0HL,51.4921873,-0.1883252
103017,Collingwood School,England,,,,,,,3 Springfield Road,NULL,Wallington,NULL,SM6 0BD,51.3621977,-0.1521279
120938,Colman Infant School,England,,,,,,,Colman Road,NULL,Norwich,NULL,NR4 7AW,52.6203448,1.2658739
120937,Colman Junior School,England,,,,,,,South Park Avenue,NULL,Norwich,NULL,NR4 7AU,52.6204954,1.2626551
135366,Colston Bassett School Limited,England,,,,,,,School Lane,Colston Bassett,Nottingham,NULL,NG12 3FD,52.890226,-0.96423
134184,Columbia Grange School,England,,,,,,,Oxclose Road,NULL,Washington,NULL,NE38 7NY,54.8933226,-1.5102872
100897,Columbia Primary School,England,,,,,,,Columbia Road,Bethnal Green,London,NULL,E2 7RG,51.5292694,-0.0702303
100221,Colvestone Primary School,England,,,,,,,Colvestone Crescent,Hackney,London,NULL,E8 2LG,51.5489477,-0.0741155
100783,Comber Grove School,England,,,,,,,Comber Grove,Camberwell,London,NULL,SE5 0LQ,51.4773572,-0.0965398
149693,Community-Ed Academy,England,,,,,,,Headway House,Trafalgar Road,Great Yarmouth,NULL,NR31 6NX,52.5836445,1.7280676
148047,Compass Community Cledford Park,England,,,,,,,Cledford House,Cledford Lane,Middlewich,NULL,CW10 0JN,53.1816954,-2.4290237
149340,Compass Community School Athelstan Park,England,,,,,,,114 Warminster Road,Westbury,NULL,NULL,BA13 3BR,51.2547393,-2.1873327
148808,Compass Community School Aylward Park,England,,,,,,,Crown Street,Leiston,NULL,NULL,IP16 4AX,52.2079646,1.579518
149112,Compass Community School Boleyn Park,England,,,,,,,8 Trinity Avenue,NULL,Westcliff-on-Sea,NULL,SS0 7PU,51.5357121,0.6997319
135510,Compass Community School Coastal Park,England,,,,,,,Heather Lodge,2 Radnor Park West,Folkestone,NULL,CT19 5HH,51.0842263,1.1677124
149866,Compass Community School Eld Park,England,,,,,,,Canterbury Way,NULL,Thetford,NULL,IP24 1EF,52.4177434,0.7343859
147473,Compass Community School Essex,England,,,,,,,274 Harwich Road,Little Clacton,ESSEX,NULL,CO16 9PY,51.8418556,1.1567622
147615,Compass Community School Hampshire,England,,,,,,,"Tull Park, Coley Avenue",NULL,Woking,NULL,GU22 7BT,51.0895203,-1.216844
147306,Compass Community School Hemsworth,England,,,,,,,58 Highfield Road,Hemsworth,NULL,NULL,WF9 4EA,53.6097143,-1.3579081
147220,Compass Community School Hereford,England,,,,,,,Fromes Hill,Ledbury,NULL,NULL,HR8 1HT,52.116356,-2.4677379
148397,Compass Community School Lancashire,England,,,,,,,Bend Hill Farm,Granville Street,Burnley,NULL,BB10 2RA,53.8106637,-2.2049443
148827,Compass Community School Lincolnshire,England,,,,,,,Thornbrook,1 London Road,Lincolnshire,NULL,NG34 0DG,52.9330785,-0.4120529
149200,Compass Community School Mountfields Park,England,,,,,,,Mountfields House,Squirrel Way,Loughborough,NULL,LE11 3GE,52.7629374,-1.2171097
138441,Compass Community School North,England,,,,,,,Long Lea House,5 Halifax Road,West Yorkshire,NULL,HX5 0SH,53.6878712,-1.8436868
149870,Compass Community School Seacole Park,England,,,,,,,Samman Road,NULL,Beverley,NULL,HU17 0BS,53.8468014,-0.416564
145116,Compass Community School South,England,,,,,,,Hilltop House,Palmerston Road,East Sussex,NULL,BN9 0NS,50.8007979,0.0686963
147780,Compass Community School Staffordshire,England,,,,,,,Wentworth House,Ellastone Road,Staffordshire,NULL,ST10 3ER,53.0326289,-1.9057795
148587,Compass Community School Vicarage Park,England,,,,,,,The Old Vicarage,The Bullring,Kidderminster,NULL,DY14 8UH,52.4424653,-2.4836144
148064,Compass Community School Victoria Park,England,,,,,,,Victoria Road,NULL,Tipton,NULL,DY4 8SW,52.5250375,-2.0611122
149871,Compass Community School Wheatley Park,England,,,,,,,25-27 Moredon Road,Rodbourne Cheney,Swindon,NULL,SN25 3DF,51.5827982,-1.8013666
148059,Compass Community School Willow Park,England,,,,,,,Willow Street,Sowerby Bridge,NULL,NULL,HX6 2BU,53.7111427,-1.901456
146335,Compton Dundon School,England,,,,,,,School Lane,Compton Dundon,Somerset,NULL,TA11 6TE,51.0893936,-2.7427108
123623,Concord College,England,,,,,,,Acton Burnell Hall,NULL,Shrewsbury,NULL,SY5 7PF,52.6142385,-2.6867386
126118,Conifers School,England,,,,,,,Egmont Road,NULL,Midhurst,NULL,GU29 9BG,50.9939691,-0.7299564
100742,Conisborough College,England,,,,,,,Conisborough Crescent,Catford,London,NULL,SE6 2SE,51.4336615,-0.0110504
101164,Connaught House School,England,,,,,,,47 Connaught Square,Westminster,NULL,NULL,W2 2HL,51.5138271,-0.1629792
151862,Connex,England,,,,,,,"Units 16 and 17a, Headlands Trading Estate",NULL,Swindon,NULL,SN2 7JQ,51.5829341,-1.7677494
148069,Connie Rothman School,England,,,,,,,Christchurch Christian Centre,Millhams Street,Christchurch,NULL,BH23 1DN,50.7348548,-1.7766305
121387,Cononley Community Primary School,England,,,,,,,Meadow Lane,Cononley,Keighley,NULL,BD20 8NA,53.919188,-2.0164915
149019,Coombe House School,England,,,,,,,Coombe House School,Donhead St Mary,Shaftesbury,NULL,SP7 9LP,51.00589,-2.1672375
150053,Coombswood Special School,England,,,,,,,Laborem Place,NULL,Halesowen,NULL,B62 8BH,52.466788,-2.0445874
115435,Coopersale Hall School,England,,,,,,,Flux's Lane,NULL,Epping,NULL,CM16 7PE,51.6830799,0.1182922
114187,Copeland Road Primary School,England,,,,,,,West Auckland,NULL,Bishop Auckland,NULL,DL14 9JJ,54.6286014,-1.7265516
151205,Copper Field School,England,,,,,,,Delaware Road,Drake Walls,Gunnislake,NULL,PL18 9EH,50.5166248,-4.2251755
120741,Copthill Independent Day School & Nursery,England,,,,,,,Barnack Road,Uffington,Stamford,NULL,PE9 3AD,52.6510047,-0.4251233
125406,Copthorne Preparatory School,England,,,,,,,Effingham Lane,Copthorne,Crawley,NULL,RH10 3HR,51.1384364,-0.0983821
148759,Core Training and Development limited,England,,,,,,,network house,Ashfield way,Leeds,NULL,LS12 5JB,53.7789049,-1.6116111
147899,Cornerstone Academy,England,,,,,,,The Stables,Warmingham Road,Cheshire,NULL,CW1 4PP,53.1238094,-2.4391282
146521,Cornfields School,England,,,,,,,207 Hythe Road,Ashford,NULL,NULL,TN24 8PL,51.1461265,0.8887073
130627,Cornwall College,England,,,,,,,Corporate Headquarters,Cornwall College St Austell,St Austell,NULL,PL25 4DJ,50.3466585,-4.7854609
106214,Corrie Primary School,England,,,,,,,Cemetery Road,Denton,Manchester,NULL,M34 6FG,53.444818,-2.1107658
130867,Coten End Primary School,England,,,,,,,Coten End,NULL,Warwick,NULL,CV34 4NP,52.2838786,-1.5759195
123297,Cothill House,England,,,,,,,Cothill,Abingdon,Abingdon,NULL,OX13 6JL,51.6929626,-1.3308057
